iata,Year,Month,average_delay,volumne,airport,city,state,lat,long
ABQ,1988,1,-1.0,7,Albuquerque International,Albuquerque,NM,35.04022222,-106.6091944
ALB,1988,1,47.0,1,Albany Cty,Albany,NY,42.74811944,-73.80297861
ATL,1988,1,24.4210526316,19,William B Hartsfield-Atlanta Intl,Atlanta,GA,33.64044444,-84.42694444
AUS,1988,1,-1.0,3,Austin-Bergstrom International,Austin,TX,30.19453278,-97.66987194
AVP,1988,1,3.0,1,Wilkes-Barre/Scranton Intl,Wilkes-Barre/Scranton,PA,41.33814944,-75.7242675
BDL,1988,1,-13.0,2,Bradley International,Windsor Locks,CT,41.93887417,-72.68322833
BHM,1988,1,10.5,2,Birmingham International,Birmingham,AL,33.56294306,-86.75354972
BNA,1988,1,3.5,2,Nashville International,Nashville,TN,36.12447667,-86.67818222
BOS,1988,1,2.0,11,Gen Edw L Logan Intl,Boston,MA,42.3643475,-71.00517917
BUF,1988,1,-13.0,1,Buffalo Niagara Intl,Buffalo,NY,42.94052472,-78.73216667
BWI,1988,1,6.0,4,Baltimore-Washington International,Baltimore,MD,39.17540167,-76.66819833
BZN,1988,1,24.0,2,Gallatin ,Bozeman,MT,45.77690139,-111.1530072
CAK,1988,1,7.0,1,Akron-Canton Regional,Akron,OH,40.91631194,-81.44246556
CHA,1988,1,-6.0,1,Lovell ,Chattanooga,TN,35.03526833,-85.20378778
CHO,1988,1,9.0,1,Charlottesville-Albermarle,Charlottesville,VA,38.13863889,-78.45286111
CHS,1988,1,-3.0,2,Charleston AFB/International,Charleston,SC,32.89864639,-80.04050583
CLE,1988,1,5.5,4,Cleveland-Hopkins Intl,Cleveland,OH,41.41089417,-81.84939667
CLT,1988,1,10.0,6,Charlotte/Douglas International,Charlotte,NC,35.21401111,-80.94312583
CMH,1988,1,-3.0,1,Port Columbus Intl,Columbus,OH,39.99798528,-82.89188278
COS,1988,1,8.0,1,City of Colorado Springs Muni,Colorado Springs,CO,38.80580556,-104.70025
CVG,1988,1,6.75,4,Cincinnati Northern Kentucky Intl,Covington,KY,39.04614278,-84.6621725
DAB,1988,1,2.0,1,Daytona Beach International,Daytona Beach,FL,29.17991667,-81.05805556
DAL,1988,1,3.0,4,Dallas Love ,Dallas,TX,32.84711389,-96.85177222
DAY,1988,1,0.666666666667,3,James M Cox Dayton Intl,Dayton,OH,39.90237583,-84.219375
DCA,1988,1,15.2,10,Ronald Reagan Washington National,Arlington,VA,38.85208333,-77.03772222
DEN,1988,1,25.4285714286,7,Denver Intl,Denver,CO,39.85840806,-104.6670019
DFW,1988,1,7.33333333333,12,Dallas-Fort Worth International,Dallas-Fort Worth,TX,32.89595056,-97.0372
DSM,1988,1,0.0,1,Des Moines International,Des Moines,IA,41.53493306,-93.66068222
DTW,1988,1,-5.22222222222,9,Detroit Metropolitan-Wayne County,Detroit,MI,42.21205889,-83.34883583
ELP,1988,1,1.0,2,El Paso International,El Paso,TX,31.80666667,-106.3778056
EWR,1988,1,21.1428571429,7,Newark Intl,Newark,NJ,40.69249722,-74.16866056
FAT,1988,1,3.0,1,Fresno Yosemite International,Fresno,CA,36.77619444,-119.7181389
FLL,1988,1,14.2857142857,7,Fort Lauderdale-Hollywood Int'l,Ft. Lauderdale,FL,26.07258333,-80.15275
FSD,1988,1,17.0,2,Joe Foss ,Sioux Falls,SD,43.58135111,-96.74170028
FWA,1988,1,21.5,2,Fort Wayne International,Fort Wayne,IN,40.97846583,-85.19514639
GEG,1988,1,7.0,1,Spokane Intl,Spokane,WA,47.61985556,-117.5338425
GRR,1988,1,1.0,1,Kent County International,Grand Rapids,MI,42.88081972,-85.52276778
GSP,1988,1,3.0,1,Greenville-Spartanburg,Greer,SC,34.89566722,-82.21885833
HOU,1988,1,5.25,4,William P Hobby,Houston,TX,29.64541861,-95.27888889
HRL,1988,1,7.0,1,Valley International,Harlingen,TX,26.22850611,-97.65439389
IAD,1988,1,-3.5,6,Washington Dulles International,Chantilly,VA,38.94453194,-77.45580972
IAH,1988,1,5.0,5,George Bush Intercontinental,Houston,TX,29.98047222,-95.33972222
ICT,1988,1,19.0,1,Wichita Mid-Continent,Wichita,KS,37.64995889,-97.43304583
IDA,1988,1,-3.0,1,Idaho Falls Regional,Idaho Falls,ID,43.51455556,-112.0701667
ILM,1988,1,27.0,1,Wilmington International,Wilmington,NC,34.27061111,-77.90255556
IND,1988,1,13.0,2,Indianapolis International,Indianapolis,IN,39.71732917,-86.29438417
JAN,1988,1,10.0,2,Jackson International,Jackson,MS,32.31116667,-90.07588889
JAX,1988,1,0.5,2,Jacksonville International,Jacksonville,FL,30.49405556,-81.68786111
JFK,1988,1,94.5,4,John F Kennedy Intl,New York,NY,40.63975111,-73.77892556
LAS,1988,1,2.16666666667,6,McCarran International,Las Vegas,NV,36.08036111,-115.1523333
LAX,1988,1,15.9047619048,21,Los Angeles International,Los Angeles,CA,33.94253611,-118.4080744
LGA,1988,1,12.8571428571,7,LaGuardia,New York,NY,40.77724306,-73.87260917
LGB,1988,1,0.0,1,Long Beach (Daugherty ),Long Beach,CA,33.81772222,-118.1516111
LIT,1988,1,2.0,1,Adams ,Little Rock,AR,34.72939611,-92.22424556
MCI,1988,1,6.0,2,Kansas City International,Kansas City,MO,39.29760528,-94.71390556
MCO,1988,1,25.8,5,Orlando International,Orlando,FL,28.42888889,-81.31602778
MDT,1988,1,1.5,2,Harrisburg Intl,Harrisburg,PA,40.19349528,-76.76340361
MDW,1988,1,-1.0,3,Chicago Midway,Chicago,IL,41.7859825,-87.75242444
MEM,1988,1,27.0833333333,12,Memphis International,Memphis,TN,35.04241667,-89.97666667
MGM,1988,1,13.0,1,Montgomery Regional Apt,Montgomery,AL,32.30064417,-86.39397611
MIA,1988,1,9.14285714286,7,Miami International,Miami,FL,25.79325,-80.29055556
MOB,1988,1,-1.0,1,Mobile Regional,Mobile,AL,30.69141667,-88.24283333
MSN,1988,1,23.0,1,Dane County Regional,Madison,WI,43.13985778,-89.33751361
MSP,1988,1,4.5,8,Minneapolis-St Paul Intl,Minneapolis,MN,44.88054694,-93.2169225
MSY,1988,1,7.5,2,New Orleans International ,New Orleans,LA,29.99338889,-90.25802778
OAJ,1988,1,19.0,1,Albert J Ellis,Jacksonville,NC,34.82916444,-77.61213778
OAK,1988,1,15.0,1,Metropolitan Oakland International,Oakland,CA,37.72129083,-122.2207167
OKC,1988,1,17.5,4,Will Rogers World,Oklahoma City,OK,35.39308833,-97.60073389
OMA,1988,1,2.33333333333,3,Eppley Airfield,Omaha,NE,41.30251861,-95.89417306
ONT,1988,1,7.4,5,Ontario International,Ontario,CA,34.056,-117.6011944
ORD,1988,1,12.1111111111,27,Chicago O'Hare International,Chicago,IL,41.979595,-87.90446417
PBI,1988,1,42.5,4,Palm Beach International,West Palm Beach,FL,26.68316194,-80.09559417
PDX,1988,1,1.75,4,Portland Intl,Portland,OR,45.58872222,-122.5975
PHL,1988,1,25.4444444444,9,Philadelphia Intl,Philadelphia,PA,39.87195278,-75.24114083
PHX,1988,1,1.76923076923,13,Phoenix Sky Harbor International,Phoenix,AZ,33.43416667,-112.0080556
PIT,1988,1,5.30769230769,13,Pittsburgh International,Pittsburgh,PA,40.49146583,-80.23287083
PNS,1988,1,-9.0,1,Pensacola Regional,Pensacola,FL,30.47330556,-87.18744444
PSP,1988,1,6.0,2,Palm Springs International,Palm Springs,CA,33.82921556,-116.5062531
PVD,1988,1,6.0,2,Theodore F Green State,Providence,RI,41.72399917,-71.42822111
RAP,1988,1,7.0,1,Rapid City Regional,Rapid City,SD,44.04532139,-103.0573708
RDU,1988,1,14.5,6,Raleigh-Durham International,Raleigh,NC,35.87763889,-78.78747222
RIC,1988,1,12.0,1,Richmond International,Richmond,VA,37.50516667,-77.31966667
RNO,1988,1,11.0,1,Reno/Tahoe International,Reno,NV,39.49857611,-119.7680647
ROC,1988,1,0.0,2,Greater Rochester Int'l,Rochester,NY,43.11886611,-77.67238389
RSW,1988,1,23.0,1,Southwest Florida International,Ft. Myers,FL,26.53616667,-81.75516667
SAN,1988,1,9.8,5,San Diego International-Lindbergh ,San Diego,CA,32.73355611,-117.1896567
SAT,1988,1,3.0,1,San Antonio International,San Antonio,TX,29.53369444,-98.46977778
SDF,1988,1,2.8,5,Louisville International-Standiford ,Louisville,KY,38.17438889,-85.736
SEA,1988,1,16.4444444444,9,Seattle-Tacoma Intl,Seattle,WA,47.44898194,-122.3093131
SFO,1988,1,10.4285714286,14,San Francisco International,San Francisco,CA,37.61900194,-122.3748433
SGF,1988,1,14.0,1,Springfield-Branson Regional,Springfield,MO,37.24432611,-93.38685806
SHV,1988,1,-10.6666666667,3,Shreveport Regional,Shreveport,LA,32.4466275,-93.82559833
SJC,1988,1,2.75,4,San Jose International,San Jose,CA,37.36186194,-121.9290089
SLC,1988,1,16.7142857143,7,Salt Lake City Intl,Salt Lake City,UT,40.78838778,-111.9777731
SNA,1988,1,5.0,1,John Wayne /Orange Co,Santa Ana,CA,33.67565861,-117.8682225
SRQ,1988,1,2.0,1,Sarasota Bradenton International,Sarasota,FL,27.39533333,-82.55411111
STL,1988,1,4.45454545455,11,Lambert-St Louis International,St Louis,MO,38.74768694,-90.35998972
SYR,1988,1,-1.0,2,Syracuse-Hancock Intl,Syracuse,NY,43.11118694,-76.10631056
TLH,1988,1,0.0,1,Tallahassee Regional,Tallahassee,FL,30.39652778,-84.35033333
TPA,1988,1,4.25,4,Tampa International ,Tampa,FL,27.97547222,-82.53325
TUL,1988,1,13.75,4,Tulsa International,Tulsa,OK,36.19837222,-95.88824167
TUS,1988,1,1.0,1,Tucson International,Tucson,AZ,32.11608333,-110.9410278
ABE,1989,1,6.0,1,Lehigh Valley International,Allentown,PA,40.65236278,-75.44040167
ABQ,1989,1,5.33333333333,3,Albuquerque International,Albuquerque,NM,35.04022222,-106.6091944
ALB,1989,1,-2.66666666667,3,Albany Cty,Albany,NY,42.74811944,-73.80297861
ATL,1989,1,5.90476190476,21,William B Hartsfield-Atlanta Intl,Atlanta,GA,33.64044444,-84.42694444
AUS,1989,1,11.0,4,Austin-Bergstrom International,Austin,TX,30.19453278,-97.66987194
BDL,1989,1,18.0,1,Bradley International,Windsor Locks,CT,41.93887417,-72.68322833
BHM,1989,1,10.3333333333,3,Birmingham International,Birmingham,AL,33.56294306,-86.75354972
BIL,1989,1,-14.5,2,Billings Logan Intl,Billings,MT,45.8076625,-108.5428611
BIS,1989,1,1.0,1,Bismarck Municipal,Bismarck,ND,46.77411111,-100.7467222
BNA,1989,1,22.8571428571,7,Nashville International,Nashville,TN,36.12447667,-86.67818222
BOI,1989,1,5.0,1,Boise Air Terminal,Boise,ID,43.56444444,-116.2227778
BOS,1989,1,9.28571428571,7,Gen Edw L Logan Intl,Boston,MA,42.3643475,-71.00517917
BUF,1989,1,-2.0,2,Buffalo Niagara Intl,Buffalo,NY,42.94052472,-78.73216667
BUR,1989,1,-2.4,5,Burbank-Glendale-Pasadena,Burbank,CA,34.20061917,-118.3584969
BWI,1989,1,-0.4,5,Baltimore-Washington International,Baltimore,MD,39.17540167,-76.66819833
BZN,1989,1,5.0,2,Gallatin ,Bozeman,MT,45.77690139,-111.1530072
CAE,1989,1,-7.0,2,Columbia Metropolitan,Columbia,SC,33.93884,-81.11953944
CHS,1989,1,2.0,1,Charleston AFB/International,Charleston,SC,32.89864639,-80.04050583
CLE,1989,1,7.0,3,Cleveland-Hopkins Intl,Cleveland,OH,41.41089417,-81.84939667
CLT,1989,1,10.8,10,Charlotte/Douglas International,Charlotte,NC,35.21401111,-80.94312583
CMH,1989,1,-7.0,1,Port Columbus Intl,Columbus,OH,39.99798528,-82.89188278
CRW,1989,1,8.0,1,Yeager,Charleston,WV,38.37315083,-81.59318972
CVG,1989,1,2.16666666667,6,Cincinnati Northern Kentucky Intl,Covington,KY,39.04614278,-84.6621725
DAL,1989,1,-5.0,1,Dallas Love ,Dallas,TX,32.84711389,-96.85177222
DAY,1989,1,4.66666666667,3,James M Cox Dayton Intl,Dayton,OH,39.90237583,-84.219375
DCA,1989,1,5.66666666667,9,Ronald Reagan Washington National,Arlington,VA,38.85208333,-77.03772222
DEN,1989,1,8.5,12,Denver Intl,Denver,CO,39.85840806,-104.6670019
DFW,1989,1,16.125,24,Dallas-Fort Worth International,Dallas-Fort Worth,TX,32.89595056,-97.0372
DSM,1989,1,0.0,2,Des Moines International,Des Moines,IA,41.53493306,-93.66068222
DTW,1989,1,8.0,10,Detroit Metropolitan-Wayne County,Detroit,MI,42.21205889,-83.34883583
ELP,1989,1,8.25,4,El Paso International,El Paso,TX,31.80666667,-106.3778056
EUG,1989,1,-1.0,1,Mahlon Sweet ,Eugene,OR,44.12326,-123.2186856
EWR,1989,1,-3.9,10,Newark Intl,Newark,NJ,40.69249722,-74.16866056
FAT,1989,1,1.0,1,Fresno Yosemite International,Fresno,CA,36.77619444,-119.7181389
FAY,1989,1,3.0,1,Fayetteville Municipal,Fayetteville,NC,34.99147222,-78.88
FLL,1989,1,3.33333333333,3,Fort Lauderdale-Hollywood Int'l,Ft. Lauderdale,FL,26.07258333,-80.15275
FWA,1989,1,9.5,2,Fort Wayne International,Fort Wayne,IN,40.97846583,-85.19514639
GEG,1989,1,6.0,2,Spokane Intl,Spokane,WA,47.61985556,-117.5338425
GRB,1989,1,3.0,1,Austin Straubel International,Green Bay,WI,44.48507333,-88.12959
GSO,1989,1,2.2,5,Piedmont Triad International,Greensboro,NC,36.09774694,-79.9372975
HOU,1989,1,-1.33333333333,6,William P Hobby,Houston,TX,29.64541861,-95.27888889
HRL,1989,1,17.5,2,Valley International,Harlingen,TX,26.22850611,-97.65439389
IAD,1989,1,8.5,6,Washington Dulles International,Chantilly,VA,38.94453194,-77.45580972
IAH,1989,1,0.857142857143,7,George Bush Intercontinental,Houston,TX,29.98047222,-95.33972222
ICT,1989,1,5.0,2,Wichita Mid-Continent,Wichita,KS,37.64995889,-97.43304583
IND,1989,1,4.0,2,Indianapolis International,Indianapolis,IN,39.71732917,-86.29438417
ISP,1989,1,-5.0,1,Long Island - MacArthur,Islip,NY,40.7952425,-73.10021194
JAN,1989,1,-2.0,1,Jackson International,Jackson,MS,32.31116667,-90.07588889
JAX,1989,1,45.5,2,Jacksonville International,Jacksonville,FL,30.49405556,-81.68786111
JFK,1989,1,23.8,5,John F Kennedy Intl,New York,NY,40.63975111,-73.77892556
LAS,1989,1,5.66666666667,6,McCarran International,Las Vegas,NV,36.08036111,-115.1523333
LAX,1989,1,-4.21428571429,14,Los Angeles International,Los Angeles,CA,33.94253611,-118.4080744
LBB,1989,1,8.0,1,Lubbock International,Lubbock,TX,33.66363889,-101.8227778
LGA,1989,1,10.2222222222,9,LaGuardia,New York,NY,40.77724306,-73.87260917
LIT,1989,1,-2.0,1,Adams ,Little Rock,AR,34.72939611,-92.22424556
LNK,1989,1,60.0,1,Lincoln Municipal,Lincoln,NE,40.85097222,-96.75925
MCI,1989,1,18.4,5,Kansas City International,Kansas City,MO,39.29760528,-94.71390556
MCO,1989,1,14.0,7,Orlando International,Orlando,FL,28.42888889,-81.31602778
MDW,1989,1,3.5,2,Chicago Midway,Chicago,IL,41.7859825,-87.75242444
MEM,1989,1,2.0,11,Memphis International,Memphis,TN,35.04241667,-89.97666667
MFE,1989,1,29.0,1,McAllen Miller International,McAllen,TX,26.17583333,-98.23861111
MIA,1989,1,35.8888888889,9,Miami International,Miami,FL,25.79325,-80.29055556
MKE,1989,1,4.0,1,General Mitchell International,Milwaukee,WI,42.94722222,-87.89658333
MLI,1989,1,3.0,3,Quad City,Moline,IL,41.44852639,-90.50753917
MOT,1989,1,6.0,1,Minot International,Minot,ND,48.25937778,-101.2803339
MSP,1989,1,4.5,14,Minneapolis-St Paul Intl,Minneapolis,MN,44.88054694,-93.2169225
MSY,1989,1,2.4,5,New Orleans International ,New Orleans,LA,29.99338889,-90.25802778
OAK,1989,1,16.0,3,Metropolitan Oakland International,Oakland,CA,37.72129083,-122.2207167
OKC,1989,1,-4.25,4,Will Rogers World,Oklahoma City,OK,35.39308833,-97.60073389
OMA,1989,1,-4.0,1,Eppley Airfield,Omaha,NE,41.30251861,-95.89417306
ONT,1989,1,7.75,4,Ontario International,Ontario,CA,34.056,-117.6011944
ORD,1989,1,9.21739130435,23,Chicago O'Hare International,Chicago,IL,41.979595,-87.90446417
ORF,1989,1,3.0,1,Norfolk International,Norfolk,VA,36.89461111,-76.20122222
PBI,1989,1,5.0,1,Palm Beach International,West Palm Beach,FL,26.68316194,-80.09559417
PDX,1989,1,5.0,1,Portland Intl,Portland,OR,45.58872222,-122.5975
PHL,1989,1,4.125,8,Philadelphia Intl,Philadelphia,PA,39.87195278,-75.24114083
PHX,1989,1,2.88235294118,17,Phoenix Sky Harbor International,Phoenix,AZ,33.43416667,-112.0080556
PIA,1989,1,-5.0,1,Greater Peoria Regional,Peoria,IL,40.66424333,-89.69330556
PIT,1989,1,9.77777777778,9,Pittsburgh International,Pittsburgh,PA,40.49146583,-80.23287083
PSP,1989,1,36.0,1,Palm Springs International,Palm Springs,CA,33.82921556,-116.5062531
RDU,1989,1,10.2,5,Raleigh-Durham International,Raleigh,NC,35.87763889,-78.78747222
RIC,1989,1,-6.0,2,Richmond International,Richmond,VA,37.50516667,-77.31966667
RNO,1989,1,1.5,2,Reno/Tahoe International,Reno,NV,39.49857611,-119.7680647
ROA,1989,1,2.33333333333,3,Roanoke Regional/ Woodrum ,Roanoke,VA,37.32546833,-79.97542833
ROC,1989,1,0.0,5,Greater Rochester Int'l,Rochester,NY,43.11886611,-77.67238389
RSW,1989,1,-8.0,1,Southwest Florida International,Ft. Myers,FL,26.53616667,-81.75516667
SAN,1989,1,-8.8,5,San Diego International-Lindbergh ,San Diego,CA,32.73355611,-117.1896567
SAT,1989,1,0.4,5,San Antonio International,San Antonio,TX,29.53369444,-98.46977778
SAV,1989,1,-12.0,1,Savannah International,Savannah,GA,32.12758333,-81.20213889
SDF,1989,1,-4.5,2,Louisville International-Standiford ,Louisville,KY,38.17438889,-85.736
SEA,1989,1,24.25,8,Seattle-Tacoma Intl,Seattle,WA,47.44898194,-122.3093131
SFO,1989,1,4.14285714286,7,San Francisco International,San Francisco,CA,37.61900194,-122.3748433
SJC,1989,1,38.3333333333,6,San Jose International,San Jose,CA,37.36186194,-121.9290089
SLC,1989,1,-3.66666666667,3,Salt Lake City Intl,Salt Lake City,UT,40.78838778,-111.9777731
SMF,1989,1,1.5,2,Sacramento International,Sacramento,CA,38.69542167,-121.5907669
SNA,1989,1,9.0,4,John Wayne /Orange Co,Santa Ana,CA,33.67565861,-117.8682225
STL,1989,1,1.375,16,Lambert-St Louis International,St Louis,MO,38.74768694,-90.35998972
SYR,1989,1,-14.0,1,Syracuse-Hancock Intl,Syracuse,NY,43.11118694,-76.10631056
TPA,1989,1,-8.6,5,Tampa International ,Tampa,FL,27.97547222,-82.53325
TUL,1989,1,-6.5,2,Tulsa International,Tulsa,OK,36.19837222,-95.88824167
TUS,1989,1,-3.0,2,Tucson International,Tucson,AZ,32.11608333,-110.9410278
TYS,1989,1,70.0,1,McGhee-Tyson,Knoxville,TN,35.81248722,-83.99285583
ABQ,1990,1,-8.0,4,Albuquerque International,Albuquerque,NM,35.04022222,-106.6091944
ALB,1990,1,-26.0,1,Albany Cty,Albany,NY,42.74811944,-73.80297861
ATL,1990,1,12.4166666667,24,William B Hartsfield-Atlanta Intl,Atlanta,GA,33.64044444,-84.42694444
AUS,1990,1,-6.0,2,Austin-Bergstrom International,Austin,TX,30.19453278,-97.66987194
AVP,1990,1,10.0,1,Wilkes-Barre/Scranton Intl,Wilkes-Barre/Scranton,PA,41.33814944,-75.7242675
BDL,1990,1,-6.0,2,Bradley International,Windsor Locks,CT,41.93887417,-72.68322833
BHM,1990,1,-9.0,1,Birmingham International,Birmingham,AL,33.56294306,-86.75354972
BIL,1990,1,-7.0,1,Billings Logan Intl,Billings,MT,45.8076625,-108.5428611
BIS,1990,1,-8.5,2,Bismarck Municipal,Bismarck,ND,46.77411111,-100.7467222
BLI,1990,1,7.0,1,Bellingham Intl,Bellingham,WA,48.79275,-122.5375278
BNA,1990,1,-5.2,5,Nashville International,Nashville,TN,36.12447667,-86.67818222
BOS,1990,1,0.8,5,Gen Edw L Logan Intl,Boston,MA,42.3643475,-71.00517917
BTR,1990,1,12.0,1,"Baton Rouge Metropolitan, Ryan ",Baton Rouge,LA,30.53316083,-91.14963444
BTV,1990,1,-15.0,1,Burlington International,Burlington,VT,44.47300361,-73.1503125
BUF,1990,1,51.0,1,Buffalo Niagara Intl,Buffalo,NY,42.94052472,-78.73216667
BUR,1990,1,-3.0,1,Burbank-Glendale-Pasadena,Burbank,CA,34.20061917,-118.3584969
BWI,1990,1,3.2,5,Baltimore-Washington International,Baltimore,MD,39.17540167,-76.66819833
BZN,1990,1,-2.0,1,Gallatin ,Bozeman,MT,45.77690139,-111.1530072
CAE,1990,1,-4.0,1,Columbia Metropolitan,Columbia,SC,33.93884,-81.11953944
CHS,1990,1,2.0,1,Charleston AFB/International,Charleston,SC,32.89864639,-80.04050583
CLE,1990,1,-3.66666666667,6,Cleveland-Hopkins Intl,Cleveland,OH,41.41089417,-81.84939667
CLT,1990,1,8.75,8,Charlotte/Douglas International,Charlotte,NC,35.21401111,-80.94312583
CMH,1990,1,4.0,1,Port Columbus Intl,Columbus,OH,39.99798528,-82.89188278
CRP,1990,1,2.0,1,Corpus Christi International,Corpus Christi,TX,27.77036083,-97.50121528
CVG,1990,1,13.25,4,Cincinnati Northern Kentucky Intl,Covington,KY,39.04614278,-84.6621725
DAL,1990,1,25.0,1,Dallas Love ,Dallas,TX,32.84711389,-96.85177222
DAY,1990,1,0.5,2,James M Cox Dayton Intl,Dayton,OH,39.90237583,-84.219375
DCA,1990,1,28.4,5,Ronald Reagan Washington National,Arlington,VA,38.85208333,-77.03772222
DEN,1990,1,-0.2,10,Denver Intl,Denver,CO,39.85840806,-104.6670019
DFW,1990,1,-0.538461538462,13,Dallas-Fort Worth International,Dallas-Fort Worth,TX,32.89595056,-97.0372
DTW,1990,1,3.0,7,Detroit Metropolitan-Wayne County,Detroit,MI,42.21205889,-83.34883583
ELP,1990,1,5.5,2,El Paso International,El Paso,TX,31.80666667,-106.3778056
EWR,1990,1,16.3,10,Newark Intl,Newark,NJ,40.69249722,-74.16866056
FAT,1990,1,49.0,1,Fresno Yosemite International,Fresno,CA,36.77619444,-119.7181389
FLL,1990,1,5.0,4,Fort Lauderdale-Hollywood Int'l,Ft. Lauderdale,FL,26.07258333,-80.15275
FSD,1990,1,-16.0,1,Joe Foss ,Sioux Falls,SD,43.58135111,-96.74170028
GEG,1990,1,13.5,2,Spokane Intl,Spokane,WA,47.61985556,-117.5338425
GRR,1990,1,-10.0,1,Kent County International,Grand Rapids,MI,42.88081972,-85.52276778
GSO,1990,1,-5.0,1,Piedmont Triad International,Greensboro,NC,36.09774694,-79.9372975
GSP,1990,1,-8.0,1,Greenville-Spartanburg,Greer,SC,34.89566722,-82.21885833
GUC,1990,1,21.0,1,Gunnison County,Gunnison,CO,38.53396333,-106.9331817
HLN,1990,1,8.0,1,Helena Regional,Helena,MT,46.60681806,-111.9827503
HOU,1990,1,0.2,5,William P Hobby,Houston,TX,29.64541861,-95.27888889
HPN,1990,1,168.0,1,Westchester Cty,White Plains,NY,41.06695778,-73.70757444
HRL,1990,1,3.0,1,Valley International,Harlingen,TX,26.22850611,-97.65439389
HSV,1990,1,-16.0,1,Huntsville International ,Huntsville,AL,34.6404475,-86.77310944
IAD,1990,1,-1.25,4,Washington Dulles International,Chantilly,VA,38.94453194,-77.45580972
IAH,1990,1,8.64285714286,14,George Bush Intercontinental,Houston,TX,29.98047222,-95.33972222
IDA,1990,1,14.0,2,Idaho Falls Regional,Idaho Falls,ID,43.51455556,-112.0701667
IND,1990,1,-10.0,2,Indianapolis International,Indianapolis,IN,39.71732917,-86.29438417
JAN,1990,1,-7.0,1,Jackson International,Jackson,MS,32.31116667,-90.07588889
JAX,1990,1,1.66666666667,3,Jacksonville International,Jacksonville,FL,30.49405556,-81.68786111
JFK,1990,1,-6.5,4,John F Kennedy Intl,New York,NY,40.63975111,-73.77892556
LAS,1990,1,-0.875,8,McCarran International,Las Vegas,NV,36.08036111,-115.1523333
LAX,1990,1,4.8,15,Los Angeles International,Los Angeles,CA,33.94253611,-118.4080744
LGA,1990,1,-2.0,12,LaGuardia,New York,NY,40.77724306,-73.87260917
LGB,1990,1,-4.0,2,Long Beach (Daugherty ),Long Beach,CA,33.81772222,-118.1516111
LNK,1990,1,-2.0,2,Lincoln Municipal,Lincoln,NE,40.85097222,-96.75925
MCI,1990,1,-1.66666666667,6,Kansas City International,Kansas City,MO,39.29760528,-94.71390556
MCO,1990,1,-3.0,5,Orlando International,Orlando,FL,28.42888889,-81.31602778
MDW,1990,1,-2.0,1,Chicago Midway,Chicago,IL,41.7859825,-87.75242444
MEM,1990,1,10.4,5,Memphis International,Memphis,TN,35.04241667,-89.97666667
MIA,1990,1,12.0,7,Miami International,Miami,FL,25.79325,-80.29055556
MKE,1990,1,-15.5,2,General Mitchell International,Milwaukee,WI,42.94722222,-87.89658333
MLB,1990,1,-5.33333333333,3,Melbourne International ,Melbourne,FL,28.10275,-80.64580556
MSN,1990,1,0.0,1,Dane County Regional,Madison,WI,43.13985778,-89.33751361
MSP,1990,1,11.6,10,Minneapolis-St Paul Intl,Minneapolis,MN,44.88054694,-93.2169225
MSY,1990,1,11.3333333333,3,New Orleans International ,New Orleans,LA,29.99338889,-90.25802778
OAK,1990,1,6.0,2,Metropolitan Oakland International,Oakland,CA,37.72129083,-122.2207167
OKC,1990,1,5.0,4,Will Rogers World,Oklahoma City,OK,35.39308833,-97.60073389
OMA,1990,1,4.0,1,Eppley Airfield,Omaha,NE,41.30251861,-95.89417306
ONT,1990,1,-9.5,2,Ontario International,Ontario,CA,34.056,-117.6011944
ORD,1990,1,14.6315789474,19,Chicago O'Hare International,Chicago,IL,41.979595,-87.90446417
ORF,1990,1,22.0,1,Norfolk International,Norfolk,VA,36.89461111,-76.20122222
PBI,1990,1,-13.0,2,Palm Beach International,West Palm Beach,FL,26.68316194,-80.09559417
PDX,1990,1,-4.33333333333,3,Portland Intl,Portland,OR,45.58872222,-122.5975
PHL,1990,1,12.0,11,Philadelphia Intl,Philadelphia,PA,39.87195278,-75.24114083
PHX,1990,1,7.0,10,Phoenix Sky Harbor International,Phoenix,AZ,33.43416667,-112.0080556
PIT,1990,1,14.7272727273,11,Pittsburgh International,Pittsburgh,PA,40.49146583,-80.23287083
PSP,1990,1,-5.0,1,Palm Springs International,Palm Springs,CA,33.82921556,-116.5062531
PVD,1990,1,-5.0,1,Theodore F Green State,Providence,RI,41.72399917,-71.42822111
RDU,1990,1,8.85714285714,7,Raleigh-Durham International,Raleigh,NC,35.87763889,-78.78747222
RIC,1990,1,21.0,2,Richmond International,Richmond,VA,37.50516667,-77.31966667
ROA,1990,1,6.0,1,Roanoke Regional/ Woodrum ,Roanoke,VA,37.32546833,-79.97542833
SAN,1990,1,6.16666666667,6,San Diego International-Lindbergh ,San Diego,CA,32.73355611,-117.1896567
SAT,1990,1,9.5,2,San Antonio International,San Antonio,TX,29.53369444,-98.46977778
SBN,1990,1,-8.0,1,South Bend Regional,South Bend,IN,41.70895361,-86.31847417
SDF,1990,1,3.0,3,Louisville International-Standiford ,Louisville,KY,38.17438889,-85.736
SEA,1990,1,7.8,5,Seattle-Tacoma Intl,Seattle,WA,47.44898194,-122.3093131
SFO,1990,1,5.0,9,San Francisco International,San Francisco,CA,37.61900194,-122.3748433
SHV,1990,1,-10.0,1,Shreveport Regional,Shreveport,LA,32.4466275,-93.82559833
SJC,1990,1,-15.5,2,San Jose International,San Jose,CA,37.36186194,-121.9290089
SLC,1990,1,-2.2,5,Salt Lake City Intl,Salt Lake City,UT,40.78838778,-111.9777731
SMF,1990,1,-2.5,2,Sacramento International,Sacramento,CA,38.69542167,-121.5907669
SNA,1990,1,-3.5,4,John Wayne /Orange Co,Santa Ana,CA,33.67565861,-117.8682225
SRQ,1990,1,-11.0,2,Sarasota Bradenton International,Sarasota,FL,27.39533333,-82.55411111
STL,1990,1,-1.69230769231,13,Lambert-St Louis International,St Louis,MO,38.74768694,-90.35998972
SYR,1990,1,-1.5,2,Syracuse-Hancock Intl,Syracuse,NY,43.11118694,-76.10631056
TPA,1990,1,4.33333333333,6,Tampa International ,Tampa,FL,27.97547222,-82.53325
TRI,1990,1,17.0,2,Tri-Cities Regional,Bristol,TN,36.47521417,-82.40742056
TUL,1990,1,11.1666666667,6,Tulsa International,Tulsa,OK,36.19837222,-95.88824167
TUS,1990,1,14.3333333333,3,Tucson International,Tucson,AZ,32.11608333,-110.9410278
TYS,1990,1,-3.5,2,McGhee-Tyson,Knoxville,TN,35.81248722,-83.99285583
YUM,1990,1,2.0,1,Yuma MCAS-Yuma International,Yuma,AZ,32.65658333,-114.6059722
ATL,1991,1,10.5,16,William B Hartsfield-Atlanta Intl,Atlanta,GA,33.64044444,-84.42694444
AUS,1991,1,17.0,3,Austin-Bergstrom International,Austin,TX,30.19453278,-97.66987194
BDL,1991,1,0.5,2,Bradley International,Windsor Locks,CT,41.93887417,-72.68322833
BHM,1991,1,-9.0,1,Birmingham International,Birmingham,AL,33.56294306,-86.75354972
BNA,1991,1,7.6,5,Nashville International,Nashville,TN,36.12447667,-86.67818222
BOI,1991,1,-10.0,1,Boise Air Terminal,Boise,ID,43.56444444,-116.2227778
BOS,1991,1,-2.83333333333,6,Gen Edw L Logan Intl,Boston,MA,42.3643475,-71.00517917
BTR,1991,1,5.5,2,"Baton Rouge Metropolitan, Ryan ",Baton Rouge,LA,30.53316083,-91.14963444
BTV,1991,1,0.0,1,Burlington International,Burlington,VT,44.47300361,-73.1503125
BUF,1991,1,2.5,2,Buffalo Niagara Intl,Buffalo,NY,42.94052472,-78.73216667
BUR,1991,1,-2.0,3,Burbank-Glendale-Pasadena,Burbank,CA,34.20061917,-118.3584969
BWI,1991,1,7.66666666667,3,Baltimore-Washington International,Baltimore,MD,39.17540167,-76.66819833
BZN,1991,1,8.0,1,Gallatin ,Bozeman,MT,45.77690139,-111.1530072
CAE,1991,1,-5.0,1,Columbia Metropolitan,Columbia,SC,33.93884,-81.11953944
CHO,1991,1,2.0,2,Charlottesville-Albermarle,Charlottesville,VA,38.13863889,-78.45286111
CID,1991,1,18.0,1,Eastern Iowa ,Cedar Rapids,IA,41.88458833,-91.71087222
CLE,1991,1,4.2,5,Cleveland-Hopkins Intl,Cleveland,OH,41.41089417,-81.84939667
CLT,1991,1,-0.692307692308,13,Charlotte/Douglas International,Charlotte,NC,35.21401111,-80.94312583
CMH,1991,1,6.66666666667,3,Port Columbus Intl,Columbus,OH,39.99798528,-82.89188278
COS,1991,1,-3.0,1,City of Colorado Springs Muni,Colorado Springs,CO,38.80580556,-104.70025
CVG,1991,1,3.57142857143,7,Cincinnati Northern Kentucky Intl,Covington,KY,39.04614278,-84.6621725
DAB,1991,1,10.0,2,Daytona Beach International,Daytona Beach,FL,29.17991667,-81.05805556
DAL,1991,1,18.0,1,Dallas Love ,Dallas,TX,32.84711389,-96.85177222
DAY,1991,1,8.0,3,James M Cox Dayton Intl,Dayton,OH,39.90237583,-84.219375
DCA,1991,1,-8.28571428571,7,Ronald Reagan Washington National,Arlington,VA,38.85208333,-77.03772222
DEN,1991,1,13.8888888889,18,Denver Intl,Denver,CO,39.85840806,-104.6670019
DFW,1991,1,5.53846153846,13,Dallas-Fort Worth International,Dallas-Fort Worth,TX,32.89595056,-97.0372
DTW,1991,1,5.2,10,Detroit Metropolitan-Wayne County,Detroit,MI,42.21205889,-83.34883583
ELP,1991,1,12.5,2,El Paso International,El Paso,TX,31.80666667,-106.3778056
EWR,1991,1,2.125,8,Newark Intl,Newark,NJ,40.69249722,-74.16866056
FAT,1991,1,-3.0,1,Fresno Yosemite International,Fresno,CA,36.77619444,-119.7181389
FLL,1991,1,13.0,2,Fort Lauderdale-Hollywood Int'l,Ft. Lauderdale,FL,26.07258333,-80.15275
FWA,1991,1,-7.0,1,Fort Wayne International,Fort Wayne,IN,40.97846583,-85.19514639
GRR,1991,1,-3.5,2,Kent County International,Grand Rapids,MI,42.88081972,-85.52276778
GSO,1991,1,11.0,2,Piedmont Triad International,Greensboro,NC,36.09774694,-79.9372975
HOU,1991,1,5.75,4,William P Hobby,Houston,TX,29.64541861,-95.27888889
IAD,1991,1,-9.0,3,Washington Dulles International,Chantilly,VA,38.94453194,-77.45580972
IAH,1991,1,17.1428571429,7,George Bush Intercontinental,Houston,TX,29.98047222,-95.33972222
IND,1991,1,21.0,4,Indianapolis International,Indianapolis,IN,39.71732917,-86.29438417
JFK,1991,1,-14.6666666667,3,John F Kennedy Intl,New York,NY,40.63975111,-73.77892556
LAS,1991,1,58.8571428571,7,McCarran International,Las Vegas,NV,36.08036111,-115.1523333
LAX,1991,1,7.91666666667,12,Los Angeles International,Los Angeles,CA,33.94253611,-118.4080744
LBB,1991,1,-3.0,1,Lubbock International,Lubbock,TX,33.66363889,-101.8227778
LGA,1991,1,-4.625,8,LaGuardia,New York,NY,40.77724306,-73.87260917
LGB,1991,1,-6.25,4,Long Beach (Daugherty ),Long Beach,CA,33.81772222,-118.1516111
LIT,1991,1,13.0,1,Adams ,Little Rock,AR,34.72939611,-92.22424556
LNK,1991,1,11.0,1,Lincoln Municipal,Lincoln,NE,40.85097222,-96.75925
MCI,1991,1,14.8333333333,6,Kansas City International,Kansas City,MO,39.29760528,-94.71390556
MCO,1991,1,4.0,5,Orlando International,Orlando,FL,28.42888889,-81.31602778
MDW,1991,1,29.1666666667,6,Chicago Midway,Chicago,IL,41.7859825,-87.75242444
MEM,1991,1,10.0,4,Memphis International,Memphis,TN,35.04241667,-89.97666667
MIA,1991,1,27.4,5,Miami International,Miami,FL,25.79325,-80.29055556
MOB,1991,1,81.0,1,Mobile Regional,Mobile,AL,30.69141667,-88.24283333
MSP,1991,1,5.14285714286,7,Minneapolis-St Paul Intl,Minneapolis,MN,44.88054694,-93.2169225
MSY,1991,1,20.0,3,New Orleans International ,New Orleans,LA,29.99338889,-90.25802778
OAK,1991,1,0.0,4,Metropolitan Oakland International,Oakland,CA,37.72129083,-122.2207167
OKC,1991,1,13.5,2,Will Rogers World,Oklahoma City,OK,35.39308833,-97.60073389
OMA,1991,1,19.75,4,Eppley Airfield,Omaha,NE,41.30251861,-95.89417306
ONT,1991,1,4.25,4,Ontario International,Ontario,CA,34.056,-117.6011944
ORD,1991,1,8.78260869565,23,Chicago O'Hare International,Chicago,IL,41.979595,-87.90446417
ORF,1991,1,-4.5,4,Norfolk International,Norfolk,VA,36.89461111,-76.20122222
PBI,1991,1,25.0,5,Palm Beach International,West Palm Beach,FL,26.68316194,-80.09559417
PDX,1991,1,11.3333333333,3,Portland Intl,Portland,OR,45.58872222,-122.5975
PHL,1991,1,20.6666666667,6,Philadelphia Intl,Philadelphia,PA,39.87195278,-75.24114083
PHX,1991,1,4.0,9,Phoenix Sky Harbor International,Phoenix,AZ,33.43416667,-112.0080556
PIT,1991,1,5.72727272727,11,Pittsburgh International,Pittsburgh,PA,40.49146583,-80.23287083
PSP,1991,1,23.0,1,Palm Springs International,Palm Springs,CA,33.82921556,-116.5062531
PVD,1991,1,-3.0,1,Theodore F Green State,Providence,RI,41.72399917,-71.42822111
RDU,1991,1,7.0,4,Raleigh-Durham International,Raleigh,NC,35.87763889,-78.78747222
RIC,1991,1,2.0,1,Richmond International,Richmond,VA,37.50516667,-77.31966667
RNO,1991,1,12.5,2,Reno/Tahoe International,Reno,NV,39.49857611,-119.7680647
ROC,1991,1,10.75,4,Greater Rochester Int'l,Rochester,NY,43.11886611,-77.67238389
SAN,1991,1,22.0,3,San Diego International-Lindbergh ,San Diego,CA,32.73355611,-117.1896567
SAT,1991,1,0.0,1,San Antonio International,San Antonio,TX,29.53369444,-98.46977778
SBA,1991,1,-4.0,1,Santa Barbara Municipal,Santa Barbara,CA,34.42621194,-119.8403733
SDF,1991,1,-4.0,2,Louisville International-Standiford ,Louisville,KY,38.17438889,-85.736
SEA,1991,1,3.0,4,Seattle-Tacoma Intl,Seattle,WA,47.44898194,-122.3093131
SFO,1991,1,25.1111111111,9,San Francisco International,San Francisco,CA,37.61900194,-122.3748433
SJC,1991,1,14.6666666667,6,San Jose International,San Jose,CA,37.36186194,-121.9290089
SLC,1991,1,2.54545454545,11,Salt Lake City Intl,Salt Lake City,UT,40.78838778,-111.9777731
SMF,1991,1,10.0,1,Sacramento International,Sacramento,CA,38.69542167,-121.5907669
SNA,1991,1,7.0,2,John Wayne /Orange Co,Santa Ana,CA,33.67565861,-117.8682225
STL,1991,1,35.5454545455,11,Lambert-St Louis International,St Louis,MO,38.74768694,-90.35998972
SYR,1991,1,109.0,1,Syracuse-Hancock Intl,Syracuse,NY,43.11118694,-76.10631056
TLH,1991,1,-6.0,1,Tallahassee Regional,Tallahassee,FL,30.39652778,-84.35033333
TPA,1991,1,6.42857142857,7,Tampa International ,Tampa,FL,27.97547222,-82.53325
TYS,1991,1,7.0,1,McGhee-Tyson,Knoxville,TN,35.81248722,-83.99285583
YUM,1991,1,-13.0,1,Yuma MCAS-Yuma International,Yuma,AZ,32.65658333,-114.6059722
ABQ,1992,1,8.0,2,Albuquerque International,Albuquerque,NM,35.04022222,-106.6091944
AGS,1992,1,-5.5,2,Bush ,Augusta,GA,33.369955,-81.96449611
ALB,1992,1,-6.5,2,Albany Cty,Albany,NY,42.74811944,-73.80297861
ATL,1992,1,14.2105263158,19,William B Hartsfield-Atlanta Intl,Atlanta,GA,33.64044444,-84.42694444
AUS,1992,1,5.33333333333,3,Austin-Bergstrom International,Austin,TX,30.19453278,-97.66987194
BDL,1992,1,2.0,3,Bradley International,Windsor Locks,CT,41.93887417,-72.68322833
BHM,1992,1,10.25,4,Birmingham International,Birmingham,AL,33.56294306,-86.75354972
BIL,1992,1,18.0,1,Billings Logan Intl,Billings,MT,45.8076625,-108.5428611
BNA,1992,1,4.83333333333,6,Nashville International,Nashville,TN,36.12447667,-86.67818222
BOS,1992,1,-1.0,5,Gen Edw L Logan Intl,Boston,MA,42.3643475,-71.00517917
BTR,1992,1,-11.0,1,"Baton Rouge Metropolitan, Ryan ",Baton Rouge,LA,30.53316083,-91.14963444
BTV,1992,1,-8.0,1,Burlington International,Burlington,VT,44.47300361,-73.1503125
BUF,1992,1,8.5,2,Buffalo Niagara Intl,Buffalo,NY,42.94052472,-78.73216667
BUR,1992,1,-2.5,2,Burbank-Glendale-Pasadena,Burbank,CA,34.20061917,-118.3584969
BWI,1992,1,1.71428571429,7,Baltimore-Washington International,Baltimore,MD,39.17540167,-76.66819833
BZN,1992,1,-13.0,1,Gallatin ,Bozeman,MT,45.77690139,-111.1530072
CAK,1992,1,-10.0,1,Akron-Canton Regional,Akron,OH,40.91631194,-81.44246556
CID,1992,1,0.0,1,Eastern Iowa ,Cedar Rapids,IA,41.88458833,-91.71087222
CLE,1992,1,4.5,6,Cleveland-Hopkins Intl,Cleveland,OH,41.41089417,-81.84939667
CLT,1992,1,-0.375,8,Charlotte/Douglas International,Charlotte,NC,35.21401111,-80.94312583
CMH,1992,1,-8.66666666667,3,Port Columbus Intl,Columbus,OH,39.99798528,-82.89188278
COS,1992,1,-19.0,1,City of Colorado Springs Muni,Colorado Springs,CO,38.80580556,-104.70025
CPR,1992,1,21.0,1,Natrona County Intl,Casper,WY,42.90835556,-106.4644661
CRP,1992,1,-7.0,1,Corpus Christi International,Corpus Christi,TX,27.77036083,-97.50121528
CVG,1992,1,2.4,10,Cincinnati Northern Kentucky Intl,Covington,KY,39.04614278,-84.6621725
DAL,1992,1,-5.83333333333,6,Dallas Love ,Dallas,TX,32.84711389,-96.85177222
DAY,1992,1,21.0,2,James M Cox Dayton Intl,Dayton,OH,39.90237583,-84.219375
DCA,1992,1,6.85714285714,7,Ronald Reagan Washington National,Arlington,VA,38.85208333,-77.03772222
DEN,1992,1,8.33333333333,9,Denver Intl,Denver,CO,39.85840806,-104.6670019
DFW,1992,1,6.60714285714,28,Dallas-Fort Worth International,Dallas-Fort Worth,TX,32.89595056,-97.0372
DSM,1992,1,40.3333333333,3,Des Moines International,Des Moines,IA,41.53493306,-93.66068222
DTW,1992,1,0.846153846154,13,Detroit Metropolitan-Wayne County,Detroit,MI,42.21205889,-83.34883583
ELP,1992,1,-1.33333333333,3,El Paso International,El Paso,TX,31.80666667,-106.3778056
EVV,1992,1,14.0,1,Evansville Regional,Evansville,IN,38.03799139,-87.53062667
EWR,1992,1,19.4166666667,12,Newark Intl,Newark,NJ,40.69249722,-74.16866056
FLL,1992,1,31.6666666667,3,Fort Lauderdale-Hollywood Int'l,Ft. Lauderdale,FL,26.07258333,-80.15275
GRB,1992,1,2.0,1,Austin Straubel International,Green Bay,WI,44.48507333,-88.12959
GRR,1992,1,13.0,2,Kent County International,Grand Rapids,MI,42.88081972,-85.52276778
GSO,1992,1,-1.33333333333,3,Piedmont Triad International,Greensboro,NC,36.09774694,-79.9372975
GTF,1992,1,-4.0,1,Great Falls Intl,Great Falls,MT,47.48200194,-111.3706853
HDN,1992,1,12.0,1,Yampa Valley,Hayden,CO,40.48118028,-107.2176597
HOU,1992,1,-5.0,2,William P Hobby,Houston,TX,29.64541861,-95.27888889
HPN,1992,1,-4.0,1,Westchester Cty,White Plains,NY,41.06695778,-73.70757444
HSV,1992,1,38.0,1,Huntsville International ,Huntsville,AL,34.6404475,-86.77310944
IAD,1992,1,3.75,4,Washington Dulles International,Chantilly,VA,38.94453194,-77.45580972
IAH,1992,1,7.6,10,George Bush Intercontinental,Houston,TX,29.98047222,-95.33972222
ICT,1992,1,-19.5,2,Wichita Mid-Continent,Wichita,KS,37.64995889,-97.43304583
IND,1992,1,7.5,2,Indianapolis International,Indianapolis,IN,39.71732917,-86.29438417
ISP,1992,1,-16.0,1,Long Island - MacArthur,Islip,NY,40.7952425,-73.10021194
JAX,1992,1,6.25,4,Jacksonville International,Jacksonville,FL,30.49405556,-81.68786111
JFK,1992,1,55.0,1,John F Kennedy Intl,New York,NY,40.63975111,-73.77892556
LAS,1992,1,2.0,10,McCarran International,Las Vegas,NV,36.08036111,-115.1523333
LAX,1992,1,5.3125,16,Los Angeles International,Los Angeles,CA,33.94253611,-118.4080744
LGA,1992,1,-7.6,10,LaGuardia,New York,NY,40.77724306,-73.87260917
MAF,1992,1,8.0,1,Midland International,Midland,TX,31.94252778,-102.2019139
MCI,1992,1,-2.5,2,Kansas City International,Kansas City,MO,39.29760528,-94.71390556
MCO,1992,1,22.1111111111,9,Orlando International,Orlando,FL,28.42888889,-81.31602778
MDW,1992,1,-8.0,1,Chicago Midway,Chicago,IL,41.7859825,-87.75242444
MEM,1992,1,-0.75,4,Memphis International,Memphis,TN,35.04241667,-89.97666667
MHT,1992,1,34.0,1,Manchester,Manchester,NH,42.93451639,-71.43705583
MIA,1992,1,-1.5,6,Miami International,Miami,FL,25.79325,-80.29055556
MKE,1992,1,-8.0,1,General Mitchell International,Milwaukee,WI,42.94722222,-87.89658333
MLI,1992,1,-1.5,2,Quad City,Moline,IL,41.44852639,-90.50753917
MSP,1992,1,-0.5,4,Minneapolis-St Paul Intl,Minneapolis,MN,44.88054694,-93.2169225
MSY,1992,1,9.33333333333,3,New Orleans International ,New Orleans,LA,29.99338889,-90.25802778
OAK,1992,1,-8.0,2,Metropolitan Oakland International,Oakland,CA,37.72129083,-122.2207167
OKC,1992,1,-6.0,2,Will Rogers World,Oklahoma City,OK,35.39308833,-97.60073389
ONT,1992,1,-9.5,4,Ontario International,Ontario,CA,34.056,-117.6011944
ORD,1992,1,8.11538461538,26,Chicago O'Hare International,Chicago,IL,41.979595,-87.90446417
PBI,1992,1,3.5,4,Palm Beach International,West Palm Beach,FL,26.68316194,-80.09559417
PDX,1992,1,-14.0,1,Portland Intl,Portland,OR,45.58872222,-122.5975
PHL,1992,1,3.33333333333,9,Philadelphia Intl,Philadelphia,PA,39.87195278,-75.24114083
PHX,1992,1,1.05882352941,17,Phoenix Sky Harbor International,Phoenix,AZ,33.43416667,-112.0080556
PIT,1992,1,2.6875,16,Pittsburgh International,Pittsburgh,PA,40.49146583,-80.23287083
PVD,1992,1,-1.33333333333,3,Theodore F Green State,Providence,RI,41.72399917,-71.42822111
PWM,1992,1,10.0,1,Portland International Jetport,Portland,ME,43.64616667,-70.30875
RDU,1992,1,-1.28571428571,7,Raleigh-Durham International,Raleigh,NC,35.87763889,-78.78747222
RIC,1992,1,-0.333333333333,3,Richmond International,Richmond,VA,37.50516667,-77.31966667
ROC,1992,1,8.0,1,Greater Rochester Int'l,Rochester,NY,43.11886611,-77.67238389
RSW,1992,1,3.0,3,Southwest Florida International,Ft. Myers,FL,26.53616667,-81.75516667
SAN,1992,1,-5.28571428571,7,San Diego International-Lindbergh ,San Diego,CA,32.73355611,-117.1896567
SAT,1992,1,-5.0,2,San Antonio International,San Antonio,TX,29.53369444,-98.46977778
SDF,1992,1,-1.0,1,Louisville International-Standiford ,Louisville,KY,38.17438889,-85.736
SEA,1992,1,-6.57142857143,7,Seattle-Tacoma Intl,Seattle,WA,47.44898194,-122.3093131
SFO,1992,1,8.42857142857,7,San Francisco International,San Francisco,CA,37.61900194,-122.3748433
SJC,1992,1,-7.75,4,San Jose International,San Jose,CA,37.36186194,-121.9290089
SLC,1992,1,4.33333333333,3,Salt Lake City Intl,Salt Lake City,UT,40.78838778,-111.9777731
SMF,1992,1,15.8333333333,6,Sacramento International,Sacramento,CA,38.69542167,-121.5907669
SNA,1992,1,-0.5,2,John Wayne /Orange Co,Santa Ana,CA,33.67565861,-117.8682225
SRQ,1992,1,-5.0,1,Sarasota Bradenton International,Sarasota,FL,27.39533333,-82.55411111
STL,1992,1,2.25,8,Lambert-St Louis International,St Louis,MO,38.74768694,-90.35998972
SYR,1992,1,-11.0,1,Syracuse-Hancock Intl,Syracuse,NY,43.11118694,-76.10631056
TPA,1992,1,13.1666666667,6,Tampa International ,Tampa,FL,27.97547222,-82.53325
TUL,1992,1,-9.0,2,Tulsa International,Tulsa,OK,36.19837222,-95.88824167
TUS,1992,1,14.0,2,Tucson International,Tucson,AZ,32.11608333,-110.9410278
ABQ,1993,1,-5.0,1,Albuquerque International,Albuquerque,NM,35.04022222,-106.6091944
ALB,1993,1,5.5,2,Albany Cty,Albany,NY,42.74811944,-73.80297861
ATL,1993,1,11.8095238095,21,William B Hartsfield-Atlanta Intl,Atlanta,GA,33.64044444,-84.42694444
AUS,1993,1,11.5,2,Austin-Bergstrom International,Austin,TX,30.19453278,-97.66987194
BDL,1993,1,-1.66666666667,3,Bradley International,Windsor Locks,CT,41.93887417,-72.68322833
BIS,1993,1,3.0,2,Bismarck Municipal,Bismarck,ND,46.77411111,-100.7467222
BNA,1993,1,-2.8,5,Nashville International,Nashville,TN,36.12447667,-86.67818222
BOI,1993,1,48.0,2,Boise Air Terminal,Boise,ID,43.56444444,-116.2227778
BOS,1993,1,7.88888888889,9,Gen Edw L Logan Intl,Boston,MA,42.3643475,-71.00517917
BUF,1993,1,-6.5,2,Buffalo Niagara Intl,Buffalo,NY,42.94052472,-78.73216667
BUR,1993,1,0.0,2,Burbank-Glendale-Pasadena,Burbank,CA,34.20061917,-118.3584969
BWI,1993,1,16.75,4,Baltimore-Washington International,Baltimore,MD,39.17540167,-76.66819833
BZN,1993,1,3.5,2,Gallatin ,Bozeman,MT,45.77690139,-111.1530072
CLE,1993,1,-1.14285714286,7,Cleveland-Hopkins Intl,Cleveland,OH,41.41089417,-81.84939667
CLT,1993,1,0.875,8,Charlotte/Douglas International,Charlotte,NC,35.21401111,-80.94312583
CMH,1993,1,-5.66666666667,3,Port Columbus Intl,Columbus,OH,39.99798528,-82.89188278
COS,1993,1,-7.5,2,City of Colorado Springs Muni,Colorado Springs,CO,38.80580556,-104.70025
CRP,1993,1,11.0,1,Corpus Christi International,Corpus Christi,TX,27.77036083,-97.50121528
CRW,1993,1,-9.0,1,Yeager,Charleston,WV,38.37315083,-81.59318972
CVG,1993,1,11.3333333333,3,Cincinnati Northern Kentucky Intl,Covington,KY,39.04614278,-84.6621725
DAL,1993,1,2.5,2,Dallas Love ,Dallas,TX,32.84711389,-96.85177222
DAY,1993,1,8.66666666667,3,James M Cox Dayton Intl,Dayton,OH,39.90237583,-84.219375
DCA,1993,1,1.8,5,Ronald Reagan Washington National,Arlington,VA,38.85208333,-77.03772222
DEN,1993,1,11.875,16,Denver Intl,Denver,CO,39.85840806,-104.6670019
DFW,1993,1,7.08,25,Dallas-Fort Worth International,Dallas-Fort Worth,TX,32.89595056,-97.0372
DTW,1993,1,4.375,16,Detroit Metropolitan-Wayne County,Detroit,MI,42.21205889,-83.34883583
ELP,1993,1,14.5,2,El Paso International,El Paso,TX,31.80666667,-106.3778056
EWR,1993,1,19.5,4,Newark Intl,Newark,NJ,40.69249722,-74.16866056
FAR,1993,1,-4.0,1,Hector International,Fargo,ND,46.91934889,-96.81498889
FAY,1993,1,-7.0,1,Fayetteville Municipal,Fayetteville,NC,34.99147222,-78.88
FLL,1993,1,7.5,2,Fort Lauderdale-Hollywood Int'l,Ft. Lauderdale,FL,26.07258333,-80.15275
FSD,1993,1,29.0,2,Joe Foss ,Sioux Falls,SD,43.58135111,-96.74170028
GEG,1993,1,-5.0,1,Spokane Intl,Spokane,WA,47.61985556,-117.5338425
GRB,1993,1,1.0,1,Austin Straubel International,Green Bay,WI,44.48507333,-88.12959
GRR,1993,1,-0.25,4,Kent County International,Grand Rapids,MI,42.88081972,-85.52276778
GSO,1993,1,4.0,1,Piedmont Triad International,Greensboro,NC,36.09774694,-79.9372975
GTF,1993,1,9.0,1,Great Falls Intl,Great Falls,MT,47.48200194,-111.3706853
GUC,1993,1,1.0,1,Gunnison County,Gunnison,CO,38.53396333,-106.9331817
HOU,1993,1,-1.4,5,William P Hobby,Houston,TX,29.64541861,-95.27888889
HPN,1993,1,-8.0,1,Westchester Cty,White Plains,NY,41.06695778,-73.70757444
IAD,1993,1,-6.33333333333,3,Washington Dulles International,Chantilly,VA,38.94453194,-77.45580972
IAH,1993,1,4.27272727273,11,George Bush Intercontinental,Houston,TX,29.98047222,-95.33972222
IND,1993,1,1.66666666667,3,Indianapolis International,Indianapolis,IN,39.71732917,-86.29438417
ISP,1993,1,32.0,1,Long Island - MacArthur,Islip,NY,40.7952425,-73.10021194
JAC,1993,1,47.5,2,Jackson Hole,Jackson,WY,43.60732417,-110.7377389
JAX,1993,1,-15.5,2,Jacksonville International,Jacksonville,FL,30.49405556,-81.68786111
JFK,1993,1,-1.0,7,John F Kennedy Intl,New York,NY,40.63975111,-73.77892556
LAS,1993,1,2.0,3,McCarran International,Las Vegas,NV,36.08036111,-115.1523333
LAX,1993,1,17.4444444444,9,Los Angeles International,Los Angeles,CA,33.94253611,-118.4080744
LBB,1993,1,19.5,2,Lubbock International,Lubbock,TX,33.66363889,-101.8227778
LGA,1993,1,-4.85714285714,7,LaGuardia,New York,NY,40.77724306,-73.87260917
LGB,1993,1,-13.0,1,Long Beach (Daugherty ),Long Beach,CA,33.81772222,-118.1516111
LIT,1993,1,2.33333333333,3,Adams ,Little Rock,AR,34.72939611,-92.22424556
LNK,1993,1,28.0,1,Lincoln Municipal,Lincoln,NE,40.85097222,-96.75925
MCI,1993,1,0.0,3,Kansas City International,Kansas City,MO,39.29760528,-94.71390556
MCO,1993,1,12.1428571429,7,Orlando International,Orlando,FL,28.42888889,-81.31602778
MEM,1993,1,4.5,6,Memphis International,Memphis,TN,35.04241667,-89.97666667
MIA,1993,1,4.33333333333,6,Miami International,Miami,FL,25.79325,-80.29055556
MKE,1993,1,54.5,2,General Mitchell International,Milwaukee,WI,42.94722222,-87.89658333
MLU,1993,1,0.0,1,Monroe Regional,Monroe,LA,32.51086556,-92.03768778
MOB,1993,1,-4.0,1,Mobile Regional,Mobile,AL,30.69141667,-88.24283333
MSN,1993,1,-14.0,1,Dane County Regional,Madison,WI,43.13985778,-89.33751361
MSP,1993,1,1.16666666667,12,Minneapolis-St Paul Intl,Minneapolis,MN,44.88054694,-93.2169225
MSY,1993,1,-0.5,2,New Orleans International ,New Orleans,LA,29.99338889,-90.25802778
OAK,1993,1,-0.5,2,Metropolitan Oakland International,Oakland,CA,37.72129083,-122.2207167
OKC,1993,1,5.0,1,Will Rogers World,Oklahoma City,OK,35.39308833,-97.60073389
OMA,1993,1,-10.0,3,Eppley Airfield,Omaha,NE,41.30251861,-95.89417306
ONT,1993,1,7.5,6,Ontario International,Ontario,CA,34.056,-117.6011944
ORD,1993,1,6.54166666667,24,Chicago O'Hare International,Chicago,IL,41.979595,-87.90446417
PBI,1993,1,-6.5,2,Palm Beach International,West Palm Beach,FL,26.68316194,-80.09559417
PDX,1993,1,-1.0,2,Portland Intl,Portland,OR,45.58872222,-122.5975
PHL,1993,1,3.90909090909,11,Philadelphia Intl,Philadelphia,PA,39.87195278,-75.24114083
PHX,1993,1,11.8888888889,9,Phoenix Sky Harbor International,Phoenix,AZ,33.43416667,-112.0080556
PIT,1993,1,-0.222222222222,9,Pittsburgh International,Pittsburgh,PA,40.49146583,-80.23287083
PWM,1993,1,-4.0,1,Portland International Jetport,Portland,ME,43.64616667,-70.30875
RDU,1993,1,2.71428571429,7,Raleigh-Durham International,Raleigh,NC,35.87763889,-78.78747222
RNO,1993,1,2.0,1,Reno/Tahoe International,Reno,NV,39.49857611,-119.7680647
ROA,1993,1,-4.0,1,Roanoke Regional/ Woodrum ,Roanoke,VA,37.32546833,-79.97542833
ROC,1993,1,-5.5,2,Greater Rochester Int'l,Rochester,NY,43.11886611,-77.67238389
RSW,1993,1,5.0,3,Southwest Florida International,Ft. Myers,FL,26.53616667,-81.75516667
SAN,1993,1,19.0,4,San Diego International-Lindbergh ,San Diego,CA,32.73355611,-117.1896567
SAT,1993,1,-1.0,2,San Antonio International,San Antonio,TX,29.53369444,-98.46977778
SBN,1993,1,-2.0,1,South Bend Regional,South Bend,IN,41.70895361,-86.31847417
SDF,1993,1,-10.0,1,Louisville International-Standiford ,Louisville,KY,38.17438889,-85.736
SEA,1993,1,4.25,8,Seattle-Tacoma Intl,Seattle,WA,47.44898194,-122.3093131
SFO,1993,1,5.88888888889,9,San Francisco International,San Francisco,CA,37.61900194,-122.3748433
SHV,1993,1,-6.0,1,Shreveport Regional,Shreveport,LA,32.4466275,-93.82559833
SJC,1993,1,38.5,2,San Jose International,San Jose,CA,37.36186194,-121.9290089
SLC,1993,1,2.42857142857,7,Salt Lake City Intl,Salt Lake City,UT,40.78838778,-111.9777731
SMF,1993,1,24.8,5,Sacramento International,Sacramento,CA,38.69542167,-121.5907669
SNA,1993,1,9.33333333333,6,John Wayne /Orange Co,Santa Ana,CA,33.67565861,-117.8682225
SRQ,1993,1,8.0,1,Sarasota Bradenton International,Sarasota,FL,27.39533333,-82.55411111
STL,1993,1,2.0,11,Lambert-St Louis International,St Louis,MO,38.74768694,-90.35998972
TLH,1993,1,1.0,2,Tallahassee Regional,Tallahassee,FL,30.39652778,-84.35033333
TPA,1993,1,-3.0,3,Tampa International ,Tampa,FL,27.97547222,-82.53325
TUL,1993,1,-4.0,3,Tulsa International,Tulsa,OK,36.19837222,-95.88824167
TUS,1993,1,45.0,1,Tucson International,Tucson,AZ,32.11608333,-110.9410278
TYS,1993,1,5.5,2,McGhee-Tyson,Knoxville,TN,35.81248722,-83.99285583
ABQ,1994,1,0.333333333333,3,Albuquerque International,Albuquerque,NM,35.04022222,-106.6091944
AGS,1994,1,-10.0,1,Bush ,Augusta,GA,33.369955,-81.96449611
ATL,1994,1,8.18181818182,22,William B Hartsfield-Atlanta Intl,Atlanta,GA,33.64044444,-84.42694444
AUS,1994,1,-3.66666666667,3,Austin-Bergstrom International,Austin,TX,30.19453278,-97.66987194
BDL,1994,1,-1.0,2,Bradley International,Windsor Locks,CT,41.93887417,-72.68322833
BIL,1994,1,22.0,1,Billings Logan Intl,Billings,MT,45.8076625,-108.5428611
BNA,1994,1,-1.33333333333,3,Nashville International,Nashville,TN,36.12447667,-86.67818222
BOS,1994,1,11.4,5,Gen Edw L Logan Intl,Boston,MA,42.3643475,-71.00517917
BTV,1994,1,-10.0,1,Burlington International,Burlington,VT,44.47300361,-73.1503125
BUF,1994,1,-1.0,3,Buffalo Niagara Intl,Buffalo,NY,42.94052472,-78.73216667
BUR,1994,1,10.75,4,Burbank-Glendale-Pasadena,Burbank,CA,34.20061917,-118.3584969
BWI,1994,1,35.5,4,Baltimore-Washington International,Baltimore,MD,39.17540167,-76.66819833
CAE,1994,1,-9.0,1,Columbia Metropolitan,Columbia,SC,33.93884,-81.11953944
CHA,1994,1,-2.5,2,Lovell ,Chattanooga,TN,35.03526833,-85.20378778
CID,1994,1,-6.0,1,Eastern Iowa ,Cedar Rapids,IA,41.88458833,-91.71087222
CLE,1994,1,3.5,6,Cleveland-Hopkins Intl,Cleveland,OH,41.41089417,-81.84939667
CLT,1994,1,8.76923076923,13,Charlotte/Douglas International,Charlotte,NC,35.21401111,-80.94312583
CMH,1994,1,14.0,3,Port Columbus Intl,Columbus,OH,39.99798528,-82.89188278
COS,1994,1,-5.33333333333,3,City of Colorado Springs Muni,Colorado Springs,CO,38.80580556,-104.70025
CPR,1994,1,-4.0,1,Natrona County Intl,Casper,WY,42.90835556,-106.4644661
CRW,1994,1,-3.0,1,Yeager,Charleston,WV,38.37315083,-81.59318972
CVG,1994,1,-1.4,5,Cincinnati Northern Kentucky Intl,Covington,KY,39.04614278,-84.6621725
DAL,1994,1,4.0,4,Dallas Love ,Dallas,TX,32.84711389,-96.85177222
DAY,1994,1,2.0,1,James M Cox Dayton Intl,Dayton,OH,39.90237583,-84.219375
DCA,1994,1,24.0,2,Ronald Reagan Washington National,Arlington,VA,38.85208333,-77.03772222
DEN,1994,1,17.6666666667,15,Denver Intl,Denver,CO,39.85840806,-104.6670019
DFW,1994,1,21.5333333333,15,Dallas-Fort Worth International,Dallas-Fort Worth,TX,32.89595056,-97.0372
DSM,1994,1,-1.0,2,Des Moines International,Des Moines,IA,41.53493306,-93.66068222
DTW,1994,1,10.375,8,Detroit Metropolitan-Wayne County,Detroit,MI,42.21205889,-83.34883583
ELP,1994,1,-4.2,5,El Paso International,El Paso,TX,31.80666667,-106.3778056
EWR,1994,1,25.6363636364,11,Newark Intl,Newark,NJ,40.69249722,-74.16866056
FLL,1994,1,58.3333333333,3,Fort Lauderdale-Hollywood Int'l,Ft. Lauderdale,FL,26.07258333,-80.15275
GRB,1994,1,3.0,1,Austin Straubel International,Green Bay,WI,44.48507333,-88.12959
GSO,1994,1,0.0,1,Piedmont Triad International,Greensboro,NC,36.09774694,-79.9372975
HOU,1994,1,-1.5,2,William P Hobby,Houston,TX,29.64541861,-95.27888889
HPN,1994,1,-1.0,1,Westchester Cty,White Plains,NY,41.06695778,-73.70757444
IAD,1994,1,8.4,5,Washington Dulles International,Chantilly,VA,38.94453194,-77.45580972
IAH,1994,1,20.1666666667,12,George Bush Intercontinental,Houston,TX,29.98047222,-95.33972222
ICT,1994,1,5.0,1,Wichita Mid-Continent,Wichita,KS,37.64995889,-97.43304583
IND,1994,1,10.6666666667,3,Indianapolis International,Indianapolis,IN,39.71732917,-86.29438417
JAX,1994,1,9.0,1,Jacksonville International,Jacksonville,FL,30.49405556,-81.68786111
JFK,1994,1,15.0,2,John F Kennedy Intl,New York,NY,40.63975111,-73.77892556
LAS,1994,1,8.21428571429,14,McCarran International,Las Vegas,NV,36.08036111,-115.1523333
LAX,1994,1,25.2666666667,15,Los Angeles International,Los Angeles,CA,33.94253611,-118.4080744
LBB,1994,1,19.0,1,Lubbock International,Lubbock,TX,33.66363889,-101.8227778
LEX,1994,1,11.0,1,Blue Grass ,Lexington,KY,38.03697222,-84.60538889
LGA,1994,1,4.66666666667,9,LaGuardia,New York,NY,40.77724306,-73.87260917
LGB,1994,1,2.0,1,Long Beach (Daugherty ),Long Beach,CA,33.81772222,-118.1516111
LIT,1994,1,1.0,2,Adams ,Little Rock,AR,34.72939611,-92.22424556
MAF,1994,1,42.0,1,Midland International,Midland,TX,31.94252778,-102.2019139
MCI,1994,1,22.3333333333,3,Kansas City International,Kansas City,MO,39.29760528,-94.71390556
MCO,1994,1,-1.8,5,Orlando International,Orlando,FL,28.42888889,-81.31602778
MDW,1994,1,24.5,2,Chicago Midway,Chicago,IL,41.7859825,-87.75242444
MEM,1994,1,-11.5,2,Memphis International,Memphis,TN,35.04241667,-89.97666667
MIA,1994,1,15.0,5,Miami International,Miami,FL,25.79325,-80.29055556
MKE,1994,1,0.5,2,General Mitchell International,Milwaukee,WI,42.94722222,-87.89658333
MLU,1994,1,2.0,1,Monroe Regional,Monroe,LA,32.51086556,-92.03768778
MSP,1994,1,10.9230769231,13,Minneapolis-St Paul Intl,Minneapolis,MN,44.88054694,-93.2169225
MSY,1994,1,27.5,2,New Orleans International ,New Orleans,LA,29.99338889,-90.25802778
OAK,1994,1,-5.0,1,Metropolitan Oakland International,Oakland,CA,37.72129083,-122.2207167
OKC,1994,1,-6.0,3,Will Rogers World,Oklahoma City,OK,35.39308833,-97.60073389
OMA,1994,1,10.3333333333,3,Eppley Airfield,Omaha,NE,41.30251861,-95.89417306
ONT,1994,1,22.25,4,Ontario International,Ontario,CA,34.056,-117.6011944
ORD,1994,1,11.72,25,Chicago O'Hare International,Chicago,IL,41.979595,-87.90446417
ORF,1994,1,1.5,4,Norfolk International,Norfolk,VA,36.89461111,-76.20122222
PDX,1994,1,5.0,3,Portland Intl,Portland,OR,45.58872222,-122.5975
PHL,1994,1,-11.0,3,Philadelphia Intl,Philadelphia,PA,39.87195278,-75.24114083
PHX,1994,1,3.66666666667,3,Phoenix Sky Harbor International,Phoenix,AZ,33.43416667,-112.0080556
PIT,1994,1,7.55555555556,9,Pittsburgh International,Pittsburgh,PA,40.49146583,-80.23287083
PNS,1994,1,0.0,1,Pensacola Regional,Pensacola,FL,30.47330556,-87.18744444
RDU,1994,1,41.0,3,Raleigh-Durham International,Raleigh,NC,35.87763889,-78.78747222
RIC,1994,1,-3.0,1,Richmond International,Richmond,VA,37.50516667,-77.31966667
RNO,1994,1,7.0,2,Reno/Tahoe International,Reno,NV,39.49857611,-119.7680647
RSW,1994,1,53.0,2,Southwest Florida International,Ft. Myers,FL,26.53616667,-81.75516667
SAN,1994,1,10.5,2,San Diego International-Lindbergh ,San Diego,CA,32.73355611,-117.1896567
SAT,1994,1,-5.5,4,San Antonio International,San Antonio,TX,29.53369444,-98.46977778
SDF,1994,1,7.0,2,Louisville International-Standiford ,Louisville,KY,38.17438889,-85.736
SEA,1994,1,47.3333333333,6,Seattle-Tacoma Intl,Seattle,WA,47.44898194,-122.3093131
SFO,1994,1,5.63157894737,19,San Francisco International,San Francisco,CA,37.61900194,-122.3748433
SLC,1994,1,13.0,1,Salt Lake City Intl,Salt Lake City,UT,40.78838778,-111.9777731
SMF,1994,1,8.0,1,Sacramento International,Sacramento,CA,38.69542167,-121.5907669
SNA,1994,1,-7.0,1,John Wayne /Orange Co,Santa Ana,CA,33.67565861,-117.8682225
STL,1994,1,4.1,10,Lambert-St Louis International,St Louis,MO,38.74768694,-90.35998972
SYR,1994,1,47.5,2,Syracuse-Hancock Intl,Syracuse,NY,43.11118694,-76.10631056
TPA,1994,1,9.625,8,Tampa International ,Tampa,FL,27.97547222,-82.53325
TUS,1994,1,30.0,1,Tucson International,Tucson,AZ,32.11608333,-110.9410278
TYS,1994,1,4.0,1,McGhee-Tyson,Knoxville,TN,35.81248722,-83.99285583
ATL,1995,1,6.95,20,William B Hartsfield-Atlanta Intl,Atlanta,GA,33.64044444,-84.42694444
AUS,1995,1,12.5,2,Austin-Bergstrom International,Austin,TX,30.19453278,-97.66987194
BDL,1995,1,42.0,2,Bradley International,Windsor Locks,CT,41.93887417,-72.68322833
BHM,1995,1,-4.0,3,Birmingham International,Birmingham,AL,33.56294306,-86.75354972
BNA,1995,1,-1.33333333333,3,Nashville International,Nashville,TN,36.12447667,-86.67818222
BOS,1995,1,1.5,6,Gen Edw L Logan Intl,Boston,MA,42.3643475,-71.00517917
BUF,1995,1,-1.5,2,Buffalo Niagara Intl,Buffalo,NY,42.94052472,-78.73216667
BUR,1995,1,6.66666666667,3,Burbank-Glendale-Pasadena,Burbank,CA,34.20061917,-118.3584969
BWI,1995,1,-0.666666666667,3,Baltimore-Washington International,Baltimore,MD,39.17540167,-76.66819833
BZN,1995,1,-2.0,1,Gallatin ,Bozeman,MT,45.77690139,-111.1530072
CAE,1995,1,3.0,1,Columbia Metropolitan,Columbia,SC,33.93884,-81.11953944
CLE,1995,1,2.11111111111,9,Cleveland-Hopkins Intl,Cleveland,OH,41.41089417,-81.84939667
CLT,1995,1,4.4,10,Charlotte/Douglas International,Charlotte,NC,35.21401111,-80.94312583
CMH,1995,1,12.0,1,Port Columbus Intl,Columbus,OH,39.99798528,-82.89188278
CRP,1995,1,-8.0,2,Corpus Christi International,Corpus Christi,TX,27.77036083,-97.50121528
CVG,1995,1,1.4,5,Cincinnati Northern Kentucky Intl,Covington,KY,39.04614278,-84.6621725
DAL,1995,1,10.0,8,Dallas Love ,Dallas,TX,32.84711389,-96.85177222
DAY,1995,1,0.75,4,James M Cox Dayton Intl,Dayton,OH,39.90237583,-84.219375
DCA,1995,1,7.75,4,Ronald Reagan Washington National,Arlington,VA,38.85208333,-77.03772222
DEN,1995,1,17.6666666667,9,Denver Intl,Denver,CO,39.85840806,-104.6670019
DFW,1995,1,2.75862068966,29,Dallas-Fort Worth International,Dallas-Fort Worth,TX,32.89595056,-97.0372
DSM,1995,1,-10.0,1,Des Moines International,Des Moines,IA,41.53493306,-93.66068222
DTW,1995,1,2.55555555556,9,Detroit Metropolitan-Wayne County,Detroit,MI,42.21205889,-83.34883583
ELP,1995,1,-1.33333333333,3,El Paso International,El Paso,TX,31.80666667,-106.3778056
EWR,1995,1,8.11111111111,9,Newark Intl,Newark,NJ,40.69249722,-74.16866056
FAT,1995,1,65.0,1,Fresno Yosemite International,Fresno,CA,36.77619444,-119.7181389
FLL,1995,1,-12.5,2,Fort Lauderdale-Hollywood Int'l,Ft. Lauderdale,FL,26.07258333,-80.15275
FNT,1995,1,1.0,1,Bishop,Flint,MI,42.96550333,-83.74345639
FSD,1995,1,-6.0,1,Joe Foss ,Sioux Falls,SD,43.58135111,-96.74170028
FWA,1995,1,5.0,2,Fort Wayne International,Fort Wayne,IN,40.97846583,-85.19514639
GSO,1995,1,2.75,4,Piedmont Triad International,Greensboro,NC,36.09774694,-79.9372975
HOU,1995,1,3.33333333333,6,William P Hobby,Houston,TX,29.64541861,-95.27888889
HPN,1995,1,-5.5,2,Westchester Cty,White Plains,NY,41.06695778,-73.70757444
HRL,1995,1,80.0,1,Valley International,Harlingen,TX,26.22850611,-97.65439389
HSV,1995,1,3.0,3,Huntsville International ,Huntsville,AL,34.6404475,-86.77310944
IAD,1995,1,2.33333333333,6,Washington Dulles International,Chantilly,VA,38.94453194,-77.45580972
IAH,1995,1,4.16666666667,18,George Bush Intercontinental,Houston,TX,29.98047222,-95.33972222
IND,1995,1,11.3333333333,3,Indianapolis International,Indianapolis,IN,39.71732917,-86.29438417
ISP,1995,1,-6.0,1,Long Island - MacArthur,Islip,NY,40.7952425,-73.10021194
JAX,1995,1,8.5,2,Jacksonville International,Jacksonville,FL,30.49405556,-81.68786111
JFK,1995,1,-12.6666666667,3,John F Kennedy Intl,New York,NY,40.63975111,-73.77892556
LAS,1995,1,39.4,10,McCarran International,Las Vegas,NV,36.08036111,-115.1523333
LAX,1995,1,19.55,20,Los Angeles International,Los Angeles,CA,33.94253611,-118.4080744
LBB,1995,1,-5.0,1,Lubbock International,Lubbock,TX,33.66363889,-101.8227778
LGA,1995,1,3.36363636364,11,LaGuardia,New York,NY,40.77724306,-73.87260917
LIT,1995,1,-4.0,2,Adams ,Little Rock,AR,34.72939611,-92.22424556
LNK,1995,1,29.5,2,Lincoln Municipal,Lincoln,NE,40.85097222,-96.75925
MAF,1995,1,4.0,2,Midland International,Midland,TX,31.94252778,-102.2019139
MCI,1995,1,2.75,8,Kansas City International,Kansas City,MO,39.29760528,-94.71390556
MCO,1995,1,4.57142857143,7,Orlando International,Orlando,FL,28.42888889,-81.31602778
MDT,1995,1,-4.0,1,Harrisburg Intl,Harrisburg,PA,40.19349528,-76.76340361
MDW,1995,1,19.0,2,Chicago Midway,Chicago,IL,41.7859825,-87.75242444
MEM,1995,1,5.33333333333,6,Memphis International,Memphis,TN,35.04241667,-89.97666667
MFE,1995,1,-5.0,1,McAllen Miller International,McAllen,TX,26.17583333,-98.23861111
MGM,1995,1,36.0,1,Montgomery Regional Apt,Montgomery,AL,32.30064417,-86.39397611
MHT,1995,1,16.0,1,Manchester,Manchester,NH,42.93451639,-71.43705583
MIA,1995,1,13.125,8,Miami International,Miami,FL,25.79325,-80.29055556
MLB,1995,1,4.0,1,Melbourne International ,Melbourne,FL,28.10275,-80.64580556
MLU,1995,1,2.0,1,Monroe Regional,Monroe,LA,32.51086556,-92.03768778
MSP,1995,1,4.5,10,Minneapolis-St Paul Intl,Minneapolis,MN,44.88054694,-93.2169225
MSY,1995,1,3.75,4,New Orleans International ,New Orleans,LA,29.99338889,-90.25802778
OAK,1995,1,9.66666666667,6,Metropolitan Oakland International,Oakland,CA,37.72129083,-122.2207167
OKC,1995,1,82.0,1,Will Rogers World,Oklahoma City,OK,35.39308833,-97.60073389
OMA,1995,1,-14.0,1,Eppley Airfield,Omaha,NE,41.30251861,-95.89417306
ONT,1995,1,31.8,5,Ontario International,Ontario,CA,34.056,-117.6011944
ORD,1995,1,10.2,25,Chicago O'Hare International,Chicago,IL,41.979595,-87.90446417
PBI,1995,1,22.75,4,Palm Beach International,West Palm Beach,FL,26.68316194,-80.09559417
PDX,1995,1,10.4,5,Portland Intl,Portland,OR,45.58872222,-122.5975
PHL,1995,1,13.8888888889,9,Philadelphia Intl,Philadelphia,PA,39.87195278,-75.24114083
PHX,1995,1,13.3888888889,18,Phoenix Sky Harbor International,Phoenix,AZ,33.43416667,-112.0080556
PIT,1995,1,7.11111111111,9,Pittsburgh International,Pittsburgh,PA,40.49146583,-80.23287083
PNS,1995,1,1.0,1,Pensacola Regional,Pensacola,FL,30.47330556,-87.18744444
PWM,1995,1,62.0,1,Portland International Jetport,Portland,ME,43.64616667,-70.30875
RDU,1995,1,0.5,2,Raleigh-Durham International,Raleigh,NC,35.87763889,-78.78747222
RIC,1995,1,10.0,1,Richmond International,Richmond,VA,37.50516667,-77.31966667
ROC,1995,1,39.5,2,Greater Rochester Int'l,Rochester,NY,43.11886611,-77.67238389
SAN,1995,1,42.0,3,San Diego International-Lindbergh ,San Diego,CA,32.73355611,-117.1896567
SAT,1995,1,3.0,1,San Antonio International,San Antonio,TX,29.53369444,-98.46977778
SAV,1995,1,19.0,1,Savannah International,Savannah,GA,32.12758333,-81.20213889
SDF,1995,1,8.0,2,Louisville International-Standiford ,Louisville,KY,38.17438889,-85.736
SEA,1995,1,-0.333333333333,6,Seattle-Tacoma Intl,Seattle,WA,47.44898194,-122.3093131
SFO,1995,1,35.5,6,San Francisco International,San Francisco,CA,37.61900194,-122.3748433
SGF,1995,1,-11.0,1,Springfield-Branson Regional,Springfield,MO,37.24432611,-93.38685806
SHV,1995,1,7.0,1,Shreveport Regional,Shreveport,LA,32.4466275,-93.82559833
SJC,1995,1,10.6666666667,3,San Jose International,San Jose,CA,37.36186194,-121.9290089
SLC,1995,1,4.27272727273,11,Salt Lake City Intl,Salt Lake City,UT,40.78838778,-111.9777731
SMF,1995,1,0.333333333333,3,Sacramento International,Sacramento,CA,38.69542167,-121.5907669
SNA,1995,1,2.0,2,John Wayne /Orange Co,Santa Ana,CA,33.67565861,-117.8682225
STL,1995,1,7.64285714286,14,Lambert-St Louis International,St Louis,MO,38.74768694,-90.35998972
SYR,1995,1,7.5,2,Syracuse-Hancock Intl,Syracuse,NY,43.11118694,-76.10631056
TPA,1995,1,12.1428571429,7,Tampa International ,Tampa,FL,27.97547222,-82.53325
TUL,1995,1,25.6666666667,3,Tulsa International,Tulsa,OK,36.19837222,-95.88824167
TUS,1995,1,-5.0,2,Tucson International,Tucson,AZ,32.11608333,-110.9410278
TYS,1995,1,-3.0,1,McGhee-Tyson,Knoxville,TN,35.81248722,-83.99285583
ABQ,1996,1,4.6,5,Albuquerque International,Albuquerque,NM,35.04022222,-106.6091944
ATL,1996,1,18.35,20,William B Hartsfield-Atlanta Intl,Atlanta,GA,33.64044444,-84.42694444
AUS,1996,1,-5.66666666667,3,Austin-Bergstrom International,Austin,TX,30.19453278,-97.66987194
AVL,1996,1,-4.0,1,Asheville Regional,Asheville,NC,35.43619444,-82.54180556
AVP,1996,1,25.0,1,Wilkes-Barre/Scranton Intl,Wilkes-Barre/Scranton,PA,41.33814944,-75.7242675
BDL,1996,1,7.4,5,Bradley International,Windsor Locks,CT,41.93887417,-72.68322833
BHM,1996,1,-2.5,2,Birmingham International,Birmingham,AL,33.56294306,-86.75354972
BNA,1996,1,10.4285714286,7,Nashville International,Nashville,TN,36.12447667,-86.67818222
BOI,1996,1,37.5,2,Boise Air Terminal,Boise,ID,43.56444444,-116.2227778
BOS,1996,1,52.4285714286,7,Gen Edw L Logan Intl,Boston,MA,42.3643475,-71.00517917
BTR,1996,1,34.0,1,"Baton Rouge Metropolitan, Ryan ",Baton Rouge,LA,30.53316083,-91.14963444
BTV,1996,1,-14.0,1,Burlington International,Burlington,VT,44.47300361,-73.1503125
BUR,1996,1,19.0,3,Burbank-Glendale-Pasadena,Burbank,CA,34.20061917,-118.3584969
BWI,1996,1,21.0,1,Baltimore-Washington International,Baltimore,MD,39.17540167,-76.66819833
CAE,1996,1,38.0,1,Columbia Metropolitan,Columbia,SC,33.93884,-81.11953944
CHS,1996,1,42.0,1,Charleston AFB/International,Charleston,SC,32.89864639,-80.04050583
CLE,1996,1,7.25,4,Cleveland-Hopkins Intl,Cleveland,OH,41.41089417,-81.84939667
CLT,1996,1,9.82352941176,17,Charlotte/Douglas International,Charlotte,NC,35.21401111,-80.94312583
CRP,1996,1,-3.0,1,Corpus Christi International,Corpus Christi,TX,27.77036083,-97.50121528
CVG,1996,1,19.3333333333,3,Cincinnati Northern Kentucky Intl,Covington,KY,39.04614278,-84.6621725
DAL,1996,1,3.4,5,Dallas Love ,Dallas,TX,32.84711389,-96.85177222
DCA,1996,1,-0.714285714286,7,Ronald Reagan Washington National,Arlington,VA,38.85208333,-77.03772222
DEN,1996,1,5.5,10,Denver Intl,Denver,CO,39.85840806,-104.6670019
DFW,1996,1,9.95454545455,22,Dallas-Fort Worth International,Dallas-Fort Worth,TX,32.89595056,-97.0372
DSM,1996,1,18.3333333333,3,Des Moines International,Des Moines,IA,41.53493306,-93.66068222
DTW,1996,1,12.8888888889,9,Detroit Metropolitan-Wayne County,Detroit,MI,42.21205889,-83.34883583
ELP,1996,1,-1.0,2,El Paso International,El Paso,TX,31.80666667,-106.3778056
EUG,1996,1,5.0,1,Mahlon Sweet ,Eugene,OR,44.12326,-123.2186856
EWR,1996,1,2.16666666667,6,Newark Intl,Newark,NJ,40.69249722,-74.16866056
FLL,1996,1,23.5,2,Fort Lauderdale-Hollywood Int'l,Ft. Lauderdale,FL,26.07258333,-80.15275
GEG,1996,1,-1.0,1,Spokane Intl,Spokane,WA,47.61985556,-117.5338425
GFK,1996,1,2.0,1,Grand Forks International,Grand Forks,ND,47.949255,-97.17611111
GRB,1996,1,7.0,1,Austin Straubel International,Green Bay,WI,44.48507333,-88.12959
GSO,1996,1,19.0,1,Piedmont Triad International,Greensboro,NC,36.09774694,-79.9372975
HLN,1996,1,135.0,1,Helena Regional,Helena,MT,46.60681806,-111.9827503
HOU,1996,1,0.666666666667,3,William P Hobby,Houston,TX,29.64541861,-95.27888889
HRL,1996,1,1.5,2,Valley International,Harlingen,TX,26.22850611,-97.65439389
IAD,1996,1,57.0,2,Washington Dulles International,Chantilly,VA,38.94453194,-77.45580972
IAH,1996,1,13.1,10,George Bush Intercontinental,Houston,TX,29.98047222,-95.33972222
ICT,1996,1,5.0,1,Wichita Mid-Continent,Wichita,KS,37.64995889,-97.43304583
IND,1996,1,8.8,5,Indianapolis International,Indianapolis,IN,39.71732917,-86.29438417
JAC,1996,1,89.0,1,Jackson Hole,Jackson,WY,43.60732417,-110.7377389
JAX,1996,1,56.6666666667,3,Jacksonville International,Jacksonville,FL,30.49405556,-81.68786111
JFK,1996,1,-21.0,1,John F Kennedy Intl,New York,NY,40.63975111,-73.77892556
LAS,1996,1,22.1538461538,13,McCarran International,Las Vegas,NV,36.08036111,-115.1523333
LAX,1996,1,-2.66666666667,15,Los Angeles International,Los Angeles,CA,33.94253611,-118.4080744
LGA,1996,1,-2.66666666667,6,LaGuardia,New York,NY,40.77724306,-73.87260917
LIT,1996,1,-6.0,1,Adams ,Little Rock,AR,34.72939611,-92.22424556
MAF,1996,1,-2.0,1,Midland International,Midland,TX,31.94252778,-102.2019139
MCI,1996,1,-13.0,2,Kansas City International,Kansas City,MO,39.29760528,-94.71390556
MCO,1996,1,4.0,2,Orlando International,Orlando,FL,28.42888889,-81.31602778
MDT,1996,1,14.0,1,Harrisburg Intl,Harrisburg,PA,40.19349528,-76.76340361
MDW,1996,1,-10.0,1,Chicago Midway,Chicago,IL,41.7859825,-87.75242444
MEM,1996,1,-5.0,4,Memphis International,Memphis,TN,35.04241667,-89.97666667
MIA,1996,1,6.0,6,Miami International,Miami,FL,25.79325,-80.29055556
MLU,1996,1,12.0,1,Monroe Regional,Monroe,LA,32.51086556,-92.03768778
MSN,1996,1,0.0,1,Dane County Regional,Madison,WI,43.13985778,-89.33751361
MSP,1996,1,9.0,9,Minneapolis-St Paul Intl,Minneapolis,MN,44.88054694,-93.2169225
MSY,1996,1,47.8333333333,6,New Orleans International ,New Orleans,LA,29.99338889,-90.25802778
OAK,1996,1,19.0,7,Metropolitan Oakland International,Oakland,CA,37.72129083,-122.2207167
OMA,1996,1,6.0,2,Eppley Airfield,Omaha,NE,41.30251861,-95.89417306
ONT,1996,1,-1.5,2,Ontario International,Ontario,CA,34.056,-117.6011944
ORD,1996,1,18.1153846154,26,Chicago O'Hare International,Chicago,IL,41.979595,-87.90446417
PBI,1996,1,29.0,1,Palm Beach International,West Palm Beach,FL,26.68316194,-80.09559417
PDX,1996,1,19.4,5,Portland Intl,Portland,OR,45.58872222,-122.5975
PHL,1996,1,4.125,8,Philadelphia Intl,Philadelphia,PA,39.87195278,-75.24114083
PHX,1996,1,20.5416666667,24,Phoenix Sky Harbor International,Phoenix,AZ,33.43416667,-112.0080556
PIT,1996,1,14.2307692308,13,Pittsburgh International,Pittsburgh,PA,40.49146583,-80.23287083
PNS,1996,1,31.0,1,Pensacola Regional,Pensacola,FL,30.47330556,-87.18744444
PSP,1996,1,17.0,1,Palm Springs International,Palm Springs,CA,33.82921556,-116.5062531
PVD,1996,1,-7.0,1,Theodore F Green State,Providence,RI,41.72399917,-71.42822111
PWM,1996,1,9.0,1,Portland International Jetport,Portland,ME,43.64616667,-70.30875
RDU,1996,1,-9.0,1,Raleigh-Durham International,Raleigh,NC,35.87763889,-78.78747222
RIC,1996,1,-8.0,1,Richmond International,Richmond,VA,37.50516667,-77.31966667
ROC,1996,1,37.0,1,Greater Rochester Int'l,Rochester,NY,43.11886611,-77.67238389
RSW,1996,1,26.3333333333,3,Southwest Florida International,Ft. Myers,FL,26.53616667,-81.75516667
SAN,1996,1,4.75,4,San Diego International-Lindbergh ,San Diego,CA,32.73355611,-117.1896567
SAT,1996,1,37.5,4,San Antonio International,San Antonio,TX,29.53369444,-98.46977778
SAV,1996,1,77.0,2,Savannah International,Savannah,GA,32.12758333,-81.20213889
SBA,1996,1,14.0,1,Santa Barbara Municipal,Santa Barbara,CA,34.42621194,-119.8403733
SDF,1996,1,71.5,2,Louisville International-Standiford ,Louisville,KY,38.17438889,-85.736
SEA,1996,1,16.5454545455,11,Seattle-Tacoma Intl,Seattle,WA,47.44898194,-122.3093131
SFO,1996,1,35.7,10,San Francisco International,San Francisco,CA,37.61900194,-122.3748433
SHV,1996,1,24.0,1,Shreveport Regional,Shreveport,LA,32.4466275,-93.82559833
SJC,1996,1,27.3333333333,6,San Jose International,San Jose,CA,37.36186194,-121.9290089
SLC,1996,1,26.4444444444,9,Salt Lake City Intl,Salt Lake City,UT,40.78838778,-111.9777731
SMF,1996,1,91.5,4,Sacramento International,Sacramento,CA,38.69542167,-121.5907669
SNA,1996,1,45.25,4,John Wayne /Orange Co,Santa Ana,CA,33.67565861,-117.8682225
SRQ,1996,1,6.0,1,Sarasota Bradenton International,Sarasota,FL,27.39533333,-82.55411111
STL,1996,1,43.8333333333,12,Lambert-St Louis International,St Louis,MO,38.74768694,-90.35998972
SWF,1996,1,2.0,1,Stewart,Newburgh,NY,41.50409361,-74.10483833
SYR,1996,1,33.0,2,Syracuse-Hancock Intl,Syracuse,NY,43.11118694,-76.10631056
TPA,1996,1,18.5714285714,7,Tampa International ,Tampa,FL,27.97547222,-82.53325
TUL,1996,1,11.0,2,Tulsa International,Tulsa,OK,36.19837222,-95.88824167
TUS,1996,1,13.0,1,Tucson International,Tucson,AZ,32.11608333,-110.9410278
ABQ,1997,1,29.4,5,Albuquerque International,Albuquerque,NM,35.04022222,-106.6091944
ALB,1997,1,7.0,1,Albany Cty,Albany,NY,42.74811944,-73.80297861
ATL,1997,1,3.42857142857,21,William B Hartsfield-Atlanta Intl,Atlanta,GA,33.64044444,-84.42694444
AUS,1997,1,114.0,1,Austin-Bergstrom International,Austin,TX,30.19453278,-97.66987194
BDL,1997,1,-1.5,2,Bradley International,Windsor Locks,CT,41.93887417,-72.68322833
BNA,1997,1,9.0,6,Nashville International,Nashville,TN,36.12447667,-86.67818222
BOI,1997,1,0.0,1,Boise Air Terminal,Boise,ID,43.56444444,-116.2227778
BOS,1997,1,18.0,8,Gen Edw L Logan Intl,Boston,MA,42.3643475,-71.00517917
BUF,1997,1,18.1666666667,6,Buffalo Niagara Intl,Buffalo,NY,42.94052472,-78.73216667
BUR,1997,1,6.0,6,Burbank-Glendale-Pasadena,Burbank,CA,34.20061917,-118.3584969
BWI,1997,1,20.7777777778,9,Baltimore-Washington International,Baltimore,MD,39.17540167,-76.66819833
CAE,1997,1,24.6666666667,3,Columbia Metropolitan,Columbia,SC,33.93884,-81.11953944
CHS,1997,1,6.0,1,Charleston AFB/International,Charleston,SC,32.89864639,-80.04050583
CLE,1997,1,10.5,6,Cleveland-Hopkins Intl,Cleveland,OH,41.41089417,-81.84939667
CLT,1997,1,7.0,8,Charlotte/Douglas International,Charlotte,NC,35.21401111,-80.94312583
CMH,1997,1,48.5714285714,7,Port Columbus Intl,Columbus,OH,39.99798528,-82.89188278
CVG,1997,1,15.9090909091,11,Cincinnati Northern Kentucky Intl,Covington,KY,39.04614278,-84.6621725
DAB,1997,1,10.0,1,Daytona Beach International,Daytona Beach,FL,29.17991667,-81.05805556
DAL,1997,1,25.25,4,Dallas Love ,Dallas,TX,32.84711389,-96.85177222
DAY,1997,1,-1.0,1,James M Cox Dayton Intl,Dayton,OH,39.90237583,-84.219375
DCA,1997,1,66.0,1,Ronald Reagan Washington National,Arlington,VA,38.85208333,-77.03772222
DEN,1997,1,13.375,8,Denver Intl,Denver,CO,39.85840806,-104.6670019
DFW,1997,1,2.33333333333,21,Dallas-Fort Worth International,Dallas-Fort Worth,TX,32.89595056,-97.0372
DSM,1997,1,9.0,1,Des Moines International,Des Moines,IA,41.53493306,-93.66068222
DTW,1997,1,10.2608695652,23,Detroit Metropolitan-Wayne County,Detroit,MI,42.21205889,-83.34883583
ELP,1997,1,21.6666666667,3,El Paso International,El Paso,TX,31.80666667,-106.3778056
EWR,1997,1,-1.46153846154,13,Newark Intl,Newark,NJ,40.69249722,-74.16866056
FLL,1997,1,31.6666666667,3,Fort Lauderdale-Hollywood Int'l,Ft. Lauderdale,FL,26.07258333,-80.15275
FSD,1997,1,-14.0,1,Joe Foss ,Sioux Falls,SD,43.58135111,-96.74170028
FWA,1997,1,25.0,1,Fort Wayne International,Fort Wayne,IN,40.97846583,-85.19514639
GRR,1997,1,-4.5,2,Kent County International,Grand Rapids,MI,42.88081972,-85.52276778
HOU,1997,1,4.6,5,William P Hobby,Houston,TX,29.64541861,-95.27888889
HSV,1997,1,-4.0,2,Huntsville International ,Huntsville,AL,34.6404475,-86.77310944
IAD,1997,1,31.5,2,Washington Dulles International,Chantilly,VA,38.94453194,-77.45580972
IAH,1997,1,-6.3,10,George Bush Intercontinental,Houston,TX,29.98047222,-95.33972222
IND,1997,1,15.75,4,Indianapolis International,Indianapolis,IN,39.71732917,-86.29438417
ISP,1997,1,-14.0,1,Long Island - MacArthur,Islip,NY,40.7952425,-73.10021194
JAX,1997,1,17.0,1,Jacksonville International,Jacksonville,FL,30.49405556,-81.68786111
JFK,1997,1,2.0,4,John F Kennedy Intl,New York,NY,40.63975111,-73.77892556
LAS,1997,1,13.0,9,McCarran International,Las Vegas,NV,36.08036111,-115.1523333
LAX,1997,1,10.7619047619,21,Los Angeles International,Los Angeles,CA,33.94253611,-118.4080744
LBB,1997,1,5.0,1,Lubbock International,Lubbock,TX,33.66363889,-101.8227778
LGA,1997,1,2.8,5,LaGuardia,New York,NY,40.77724306,-73.87260917
LIT,1997,1,21.0,2,Adams ,Little Rock,AR,34.72939611,-92.22424556
LNK,1997,1,54.0,1,Lincoln Municipal,Lincoln,NE,40.85097222,-96.75925
MAF,1997,1,4.5,2,Midland International,Midland,TX,31.94252778,-102.2019139
MCI,1997,1,-1.25,4,Kansas City International,Kansas City,MO,39.29760528,-94.71390556
MCO,1997,1,28.3333333333,12,Orlando International,Orlando,FL,28.42888889,-81.31602778
MDW,1997,1,22.25,4,Chicago Midway,Chicago,IL,41.7859825,-87.75242444
MEM,1997,1,4.66666666667,3,Memphis International,Memphis,TN,35.04241667,-89.97666667
MHT,1997,1,-8.0,1,Manchester,Manchester,NH,42.93451639,-71.43705583
MIA,1997,1,32.3333333333,3,Miami International,Miami,FL,25.79325,-80.29055556
MSP,1997,1,10.0,5,Minneapolis-St Paul Intl,Minneapolis,MN,44.88054694,-93.2169225
MSY,1997,1,-2.0,3,New Orleans International ,New Orleans,LA,29.99338889,-90.25802778
OAK,1997,1,49.6666666667,3,Metropolitan Oakland International,Oakland,CA,37.72129083,-122.2207167
OKC,1997,1,8.0,2,Will Rogers World,Oklahoma City,OK,35.39308833,-97.60073389
OMA,1997,1,3.0,1,Eppley Airfield,Omaha,NE,41.30251861,-95.89417306
ONT,1997,1,3.0,3,Ontario International,Ontario,CA,34.056,-117.6011944
ORD,1997,1,8.58333333333,24,Chicago O'Hare International,Chicago,IL,41.979595,-87.90446417
ORF,1997,1,2.0,1,Norfolk International,Norfolk,VA,36.89461111,-76.20122222
PBI,1997,1,19.0,2,Palm Beach International,West Palm Beach,FL,26.68316194,-80.09559417
PDX,1997,1,3.0,4,Portland Intl,Portland,OR,45.58872222,-122.5975
PHL,1997,1,2.18181818182,11,Philadelphia Intl,Philadelphia,PA,39.87195278,-75.24114083
PHX,1997,1,7.2,20,Phoenix Sky Harbor International,Phoenix,AZ,33.43416667,-112.0080556
PIT,1997,1,5.54545454545,11,Pittsburgh International,Pittsburgh,PA,40.49146583,-80.23287083
PVD,1997,1,-6.5,2,Theodore F Green State,Providence,RI,41.72399917,-71.42822111
RDU,1997,1,21.5,2,Raleigh-Durham International,Raleigh,NC,35.87763889,-78.78747222
RIC,1997,1,-7.0,3,Richmond International,Richmond,VA,37.50516667,-77.31966667
RNO,1997,1,2.0,1,Reno/Tahoe International,Reno,NV,39.49857611,-119.7680647
ROA,1997,1,-8.0,1,Roanoke Regional/ Woodrum ,Roanoke,VA,37.32546833,-79.97542833
RSW,1997,1,36.5,4,Southwest Florida International,Ft. Myers,FL,26.53616667,-81.75516667
SAN,1997,1,21.5454545455,11,San Diego International-Lindbergh ,San Diego,CA,32.73355611,-117.1896567
SAT,1997,1,5.4,5,San Antonio International,San Antonio,TX,29.53369444,-98.46977778
SDF,1997,1,7.0,2,Louisville International-Standiford ,Louisville,KY,38.17438889,-85.736
SEA,1997,1,7.75,12,Seattle-Tacoma Intl,Seattle,WA,47.44898194,-122.3093131
SFO,1997,1,51.0,7,San Francisco International,San Francisco,CA,37.61900194,-122.3748433
SGF,1997,1,-6.0,1,Springfield-Branson Regional,Springfield,MO,37.24432611,-93.38685806
SJC,1997,1,22.0,1,San Jose International,San Jose,CA,37.36186194,-121.9290089
SLC,1997,1,12.8181818182,11,Salt Lake City Intl,Salt Lake City,UT,40.78838778,-111.9777731
SMF,1997,1,1.4,5,Sacramento International,Sacramento,CA,38.69542167,-121.5907669
SNA,1997,1,-2.33333333333,6,John Wayne /Orange Co,Santa Ana,CA,33.67565861,-117.8682225
SRQ,1997,1,8.0,2,Sarasota Bradenton International,Sarasota,FL,27.39533333,-82.55411111
STL,1997,1,9.5,12,Lambert-St Louis International,St Louis,MO,38.74768694,-90.35998972
SWF,1997,1,-11.0,1,Stewart,Newburgh,NY,41.50409361,-74.10483833
TPA,1997,1,4.14285714286,7,Tampa International ,Tampa,FL,27.97547222,-82.53325
TUL,1997,1,5.0,1,Tulsa International,Tulsa,OK,36.19837222,-95.88824167
TUS,1997,1,90.6666666667,3,Tucson International,Tucson,AZ,32.11608333,-110.9410278
TYS,1997,1,-2.0,1,McGhee-Tyson,Knoxville,TN,35.81248722,-83.99285583
VPS,1997,1,46.0,2,Eglin Air Force Base,Valparaiso,FL,30.48325,-86.5254
ABE,1998,1,-10.0,1,Lehigh Valley International,Allentown,PA,40.65236278,-75.44040167
ABQ,1998,1,14.0,4,Albuquerque International,Albuquerque,NM,35.04022222,-106.6091944
ATL,1998,1,8.56666666667,30,William B Hartsfield-Atlanta Intl,Atlanta,GA,33.64044444,-84.42694444
AUS,1998,1,3.42857142857,7,Austin-Bergstrom International,Austin,TX,30.19453278,-97.66987194
AVL,1998,1,-3.0,1,Asheville Regional,Asheville,NC,35.43619444,-82.54180556
BDL,1998,1,14.0,1,Bradley International,Windsor Locks,CT,41.93887417,-72.68322833
BHM,1998,1,-1.0,1,Birmingham International,Birmingham,AL,33.56294306,-86.75354972
BNA,1998,1,11.5,4,Nashville International,Nashville,TN,36.12447667,-86.67818222
BOI,1998,1,15.0,2,Boise Air Terminal,Boise,ID,43.56444444,-116.2227778
BOS,1998,1,-8.8,5,Gen Edw L Logan Intl,Boston,MA,42.3643475,-71.00517917
BTR,1998,1,-2.0,1,"Baton Rouge Metropolitan, Ryan ",Baton Rouge,LA,30.53316083,-91.14963444
BUF,1998,1,0.0,3,Buffalo Niagara Intl,Buffalo,NY,42.94052472,-78.73216667
BWI,1998,1,2.5,12,Baltimore-Washington International,Baltimore,MD,39.17540167,-76.66819833
CHS,1998,1,5.0,1,Charleston AFB/International,Charleston,SC,32.89864639,-80.04050583
CLE,1998,1,-3.75,8,Cleveland-Hopkins Intl,Cleveland,OH,41.41089417,-81.84939667
CLT,1998,1,0.0,2,Charlotte/Douglas International,Charlotte,NC,35.21401111,-80.94312583
CMH,1998,1,11.3333333333,3,Port Columbus Intl,Columbus,OH,39.99798528,-82.89188278
COS,1998,1,22.0,2,City of Colorado Springs Muni,Colorado Springs,CO,38.80580556,-104.70025
CVG,1998,1,2.8,5,Cincinnati Northern Kentucky Intl,Covington,KY,39.04614278,-84.6621725
DAB,1998,1,-3.0,1,Daytona Beach International,Daytona Beach,FL,29.17991667,-81.05805556
DAL,1998,1,2.28571428571,7,Dallas Love ,Dallas,TX,32.84711389,-96.85177222
DCA,1998,1,2.71428571429,7,Ronald Reagan Washington National,Arlington,VA,38.85208333,-77.03772222
DEN,1998,1,-2.875,8,Denver Intl,Denver,CO,39.85840806,-104.6670019
DFW,1998,1,19.4545454545,22,Dallas-Fort Worth International,Dallas-Fort Worth,TX,32.89595056,-97.0372
DSM,1998,1,-8.0,1,Des Moines International,Des Moines,IA,41.53493306,-93.66068222
DTW,1998,1,-3.07692307692,13,Detroit Metropolitan-Wayne County,Detroit,MI,42.21205889,-83.34883583
ELP,1998,1,-5.5,2,El Paso International,El Paso,TX,31.80666667,-106.3778056
EWR,1998,1,4.2,10,Newark Intl,Newark,NJ,40.69249722,-74.16866056
FLL,1998,1,10.0,4,Fort Lauderdale-Hollywood Int'l,Ft. Lauderdale,FL,26.07258333,-80.15275
FWA,1998,1,0.0,1,Fort Wayne International,Fort Wayne,IN,40.97846583,-85.19514639
GEG,1998,1,-7.0,2,Spokane Intl,Spokane,WA,47.61985556,-117.5338425
GSO,1998,1,4.0,2,Piedmont Triad International,Greensboro,NC,36.09774694,-79.9372975
HOU,1998,1,-4.0,3,William P Hobby,Houston,TX,29.64541861,-95.27888889
IAD,1998,1,13.0,3,Washington Dulles International,Chantilly,VA,38.94453194,-77.45580972
IAH,1998,1,1.8,15,George Bush Intercontinental,Houston,TX,29.98047222,-95.33972222
IND,1998,1,0.0,4,Indianapolis International,Indianapolis,IN,39.71732917,-86.29438417
ISP,1998,1,-25.0,1,Long Island - MacArthur,Islip,NY,40.7952425,-73.10021194
JAC,1998,1,3.0,2,Jackson Hole,Jackson,WY,43.60732417,-110.7377389
JAX,1998,1,5.33333333333,3,Jacksonville International,Jacksonville,FL,30.49405556,-81.68786111
JFK,1998,1,6.66666666667,3,John F Kennedy Intl,New York,NY,40.63975111,-73.77892556
LAS,1998,1,15.1111111111,9,McCarran International,Las Vegas,NV,36.08036111,-115.1523333
LAX,1998,1,12.7857142857,14,Los Angeles International,Los Angeles,CA,33.94253611,-118.4080744
LEX,1998,1,3.0,1,Blue Grass ,Lexington,KY,38.03697222,-84.60538889
LGA,1998,1,-5.75,4,LaGuardia,New York,NY,40.77724306,-73.87260917
LIT,1998,1,6.0,1,Adams ,Little Rock,AR,34.72939611,-92.22424556
MAF,1998,1,-8.0,1,Midland International,Midland,TX,31.94252778,-102.2019139
MCI,1998,1,0.0,1,Kansas City International,Kansas City,MO,39.29760528,-94.71390556
MCO,1998,1,-5.25,4,Orlando International,Orlando,FL,28.42888889,-81.31602778
MDW,1998,1,6.66666666667,3,Chicago Midway,Chicago,IL,41.7859825,-87.75242444
MEM,1998,1,3.2,5,Memphis International,Memphis,TN,35.04241667,-89.97666667
MHT,1998,1,-7.0,1,Manchester,Manchester,NH,42.93451639,-71.43705583
MIA,1998,1,1.33333333333,3,Miami International,Miami,FL,25.79325,-80.29055556
MKE,1998,1,6.0,1,General Mitchell International,Milwaukee,WI,42.94722222,-87.89658333
MOB,1998,1,152.0,1,Mobile Regional,Mobile,AL,30.69141667,-88.24283333
MSP,1998,1,10.0769230769,13,Minneapolis-St Paul Intl,Minneapolis,MN,44.88054694,-93.2169225
MSY,1998,1,12.1666666667,6,New Orleans International ,New Orleans,LA,29.99338889,-90.25802778
OAK,1998,1,38.0,2,Metropolitan Oakland International,Oakland,CA,37.72129083,-122.2207167
OKC,1998,1,5.0,1,Will Rogers World,Oklahoma City,OK,35.39308833,-97.60073389
OMA,1998,1,1.5,2,Eppley Airfield,Omaha,NE,41.30251861,-95.89417306
ONT,1998,1,5.33333333333,3,Ontario International,Ontario,CA,34.056,-117.6011944
ORD,1998,1,7.2,25,Chicago O'Hare International,Chicago,IL,41.979595,-87.90446417
ORF,1998,1,-9.0,1,Norfolk International,Norfolk,VA,36.89461111,-76.20122222
PBI,1998,1,14.5,2,Palm Beach International,West Palm Beach,FL,26.68316194,-80.09559417
PDX,1998,1,2.66666666667,3,Portland Intl,Portland,OR,45.58872222,-122.5975
PHL,1998,1,1.45454545455,11,Philadelphia Intl,Philadelphia,PA,39.87195278,-75.24114083
PHX,1998,1,8.95833333333,24,Phoenix Sky Harbor International,Phoenix,AZ,33.43416667,-112.0080556
PIT,1998,1,32.0833333333,12,Pittsburgh International,Pittsburgh,PA,40.49146583,-80.23287083
PVD,1998,1,18.0,1,Theodore F Green State,Providence,RI,41.72399917,-71.42822111
RDU,1998,1,5.0,1,Raleigh-Durham International,Raleigh,NC,35.87763889,-78.78747222
RIC,1998,1,-8.0,1,Richmond International,Richmond,VA,37.50516667,-77.31966667
RNO,1998,1,0.333333333333,3,Reno/Tahoe International,Reno,NV,39.49857611,-119.7680647
ROA,1998,1,0.0,1,Roanoke Regional/ Woodrum ,Roanoke,VA,37.32546833,-79.97542833
ROC,1998,1,5.0,2,Greater Rochester Int'l,Rochester,NY,43.11886611,-77.67238389
SAN,1998,1,2.75,8,San Diego International-Lindbergh ,San Diego,CA,32.73355611,-117.1896567
SAT,1998,1,14.5,4,San Antonio International,San Antonio,TX,29.53369444,-98.46977778
SAV,1998,1,40.0,1,Savannah International,Savannah,GA,32.12758333,-81.20213889
SBA,1998,1,-4.0,1,Santa Barbara Municipal,Santa Barbara,CA,34.42621194,-119.8403733
SDF,1998,1,8.0,1,Louisville International-Standiford ,Louisville,KY,38.17438889,-85.736
SEA,1998,1,6.53846153846,13,Seattle-Tacoma Intl,Seattle,WA,47.44898194,-122.3093131
SFO,1998,1,18.1111111111,9,San Francisco International,San Francisco,CA,37.61900194,-122.3748433
SHV,1998,1,-10.0,2,Shreveport Regional,Shreveport,LA,32.4466275,-93.82559833
SJC,1998,1,-5.5,2,San Jose International,San Jose,CA,37.36186194,-121.9290089
SLC,1998,1,29.0,9,Salt Lake City Intl,Salt Lake City,UT,40.78838778,-111.9777731
SMF,1998,1,30.6666666667,3,Sacramento International,Sacramento,CA,38.69542167,-121.5907669
SNA,1998,1,-3.0,1,John Wayne /Orange Co,Santa Ana,CA,33.67565861,-117.8682225
STL,1998,1,2.68421052632,19,Lambert-St Louis International,St Louis,MO,38.74768694,-90.35998972
TPA,1998,1,1.33333333333,3,Tampa International ,Tampa,FL,27.97547222,-82.53325
TUL,1998,1,3.33333333333,3,Tulsa International,Tulsa,OK,36.19837222,-95.88824167
TUS,1998,1,1.0,1,Tucson International,Tucson,AZ,32.11608333,-110.9410278
TYS,1998,1,12.0,2,McGhee-Tyson,Knoxville,TN,35.81248722,-83.99285583
ABQ,1999,1,3.44444444444,9,Albuquerque International,Albuquerque,NM,35.04022222,-106.6091944
ATL,1999,1,-0.47619047619,21,William B Hartsfield-Atlanta Intl,Atlanta,GA,33.64044444,-84.42694444
AUS,1999,1,-4.5,6,Austin-Bergstrom International,Austin,TX,30.19453278,-97.66987194
BHM,1999,1,-0.2,5,Birmingham International,Birmingham,AL,33.56294306,-86.75354972
BIL,1999,1,5.0,1,Billings Logan Intl,Billings,MT,45.8076625,-108.5428611
BIS,1999,1,-29.0,1,Bismarck Municipal,Bismarck,ND,46.77411111,-100.7467222
BNA,1999,1,8.16666666667,6,Nashville International,Nashville,TN,36.12447667,-86.67818222
BOI,1999,1,3.5,2,Boise Air Terminal,Boise,ID,43.56444444,-116.2227778
BOS,1999,1,0.166666666667,6,Gen Edw L Logan Intl,Boston,MA,42.3643475,-71.00517917
BTV,1999,1,22.0,1,Burlington International,Burlington,VT,44.47300361,-73.1503125
BWI,1999,1,49.0,7,Baltimore-Washington International,Baltimore,MD,39.17540167,-76.66819833
CHS,1999,1,-15.0,1,Charleston AFB/International,Charleston,SC,32.89864639,-80.04050583
CLE,1999,1,0.75,4,Cleveland-Hopkins Intl,Cleveland,OH,41.41089417,-81.84939667
CLT,1999,1,9.18181818182,11,Charlotte/Douglas International,Charlotte,NC,35.21401111,-80.94312583
CMH,1999,1,36.6666666667,3,Port Columbus Intl,Columbus,OH,39.99798528,-82.89188278
CVG,1999,1,0.5,4,Cincinnati Northern Kentucky Intl,Covington,KY,39.04614278,-84.6621725
DAL,1999,1,-5.0,4,Dallas Love ,Dallas,TX,32.84711389,-96.85177222
DCA,1999,1,7.8,5,Ronald Reagan Washington National,Arlington,VA,38.85208333,-77.03772222
DEN,1999,1,1.92307692308,13,Denver Intl,Denver,CO,39.85840806,-104.6670019
DFW,1999,1,7.7619047619,21,Dallas-Fort Worth International,Dallas-Fort Worth,TX,32.89595056,-97.0372
DLH,1999,1,2.0,1,Duluth International,Duluth,MN,46.84209028,-92.19364861
DSM,1999,1,-10.0,1,Des Moines International,Des Moines,IA,41.53493306,-93.66068222
DTW,1999,1,16.3,10,Detroit Metropolitan-Wayne County,Detroit,MI,42.21205889,-83.34883583
ELP,1999,1,5.0,1,El Paso International,El Paso,TX,31.80666667,-106.3778056
EWR,1999,1,58.4,10,Newark Intl,Newark,NJ,40.69249722,-74.16866056
FLL,1999,1,-16.0,1,Fort Lauderdale-Hollywood Int'l,Ft. Lauderdale,FL,26.07258333,-80.15275
FSD,1999,1,6.0,1,Joe Foss ,Sioux Falls,SD,43.58135111,-96.74170028
GEG,1999,1,9.0,1,Spokane Intl,Spokane,WA,47.61985556,-117.5338425
GRR,1999,1,39.0,2,Kent County International,Grand Rapids,MI,42.88081972,-85.52276778
GSO,1999,1,-1.5,2,Piedmont Triad International,Greensboro,NC,36.09774694,-79.9372975
GSP,1999,1,3.5,2,Greenville-Spartanburg,Greer,SC,34.89566722,-82.21885833
HOU,1999,1,-5.5,8,William P Hobby,Houston,TX,29.64541861,-95.27888889
HSV,1999,1,-2.0,1,Huntsville International ,Huntsville,AL,34.6404475,-86.77310944
IAD,1999,1,13.5,4,Washington Dulles International,Chantilly,VA,38.94453194,-77.45580972
IAH,1999,1,15.875,8,George Bush Intercontinental,Houston,TX,29.98047222,-95.33972222
ICT,1999,1,-11.0,1,Wichita Mid-Continent,Wichita,KS,37.64995889,-97.43304583
IND,1999,1,6.25,4,Indianapolis International,Indianapolis,IN,39.71732917,-86.29438417
JAN,1999,1,-5.0,1,Jackson International,Jackson,MS,32.31116667,-90.07588889
JAX,1999,1,-5.33333333333,3,Jacksonville International,Jacksonville,FL,30.49405556,-81.68786111
JFK,1999,1,6.25,4,John F Kennedy Intl,New York,NY,40.63975111,-73.77892556
LAS,1999,1,4.2,10,McCarran International,Las Vegas,NV,36.08036111,-115.1523333
LAX,1999,1,-3.45454545455,11,Los Angeles International,Los Angeles,CA,33.94253611,-118.4080744
LBB,1999,1,-9.0,1,Lubbock International,Lubbock,TX,33.66363889,-101.8227778
LGA,1999,1,36.6666666667,3,LaGuardia,New York,NY,40.77724306,-73.87260917
MAF,1999,1,-9.0,2,Midland International,Midland,TX,31.94252778,-102.2019139
MCI,1999,1,-13.5,4,Kansas City International,Kansas City,MO,39.29760528,-94.71390556
MCO,1999,1,15.5,6,Orlando International,Orlando,FL,28.42888889,-81.31602778
MDW,1999,1,16.25,4,Chicago Midway,Chicago,IL,41.7859825,-87.75242444
MEM,1999,1,2.0,4,Memphis International,Memphis,TN,35.04241667,-89.97666667
MGM,1999,1,4.0,1,Montgomery Regional Apt,Montgomery,AL,32.30064417,-86.39397611
MHT,1999,1,-31.0,1,Manchester,Manchester,NH,42.93451639,-71.43705583
MIA,1999,1,31.4444444444,9,Miami International,Miami,FL,25.79325,-80.29055556
MKE,1999,1,-7.0,1,General Mitchell International,Milwaukee,WI,42.94722222,-87.89658333
MOB,1999,1,0.0,1,Mobile Regional,Mobile,AL,30.69141667,-88.24283333
MSN,1999,1,12.0,1,Dane County Regional,Madison,WI,43.13985778,-89.33751361
MSP,1999,1,-9.0,8,Minneapolis-St Paul Intl,Minneapolis,MN,44.88054694,-93.2169225
MSY,1999,1,7.83333333333,6,New Orleans International ,New Orleans,LA,29.99338889,-90.25802778
MYR,1999,1,-9.0,1,Myrtle Beach International,Myrtle Beach,SC,33.67975,-78.92833333
OAK,1999,1,0.0,2,Metropolitan Oakland International,Oakland,CA,37.72129083,-122.2207167
OKC,1999,1,0.0,2,Will Rogers World,Oklahoma City,OK,35.39308833,-97.60073389
OMA,1999,1,57.0,2,Eppley Airfield,Omaha,NE,41.30251861,-95.89417306
ONT,1999,1,2.0,4,Ontario International,Ontario,CA,34.056,-117.6011944
ORD,1999,1,48.5333333333,30,Chicago O'Hare International,Chicago,IL,41.979595,-87.90446417
ORF,1999,1,-2.0,2,Norfolk International,Norfolk,VA,36.89461111,-76.20122222
PBI,1999,1,31.5,2,Palm Beach International,West Palm Beach,FL,26.68316194,-80.09559417
PDX,1999,1,14.8571428571,7,Portland Intl,Portland,OR,45.58872222,-122.5975
PHL,1999,1,18.375,8,Philadelphia Intl,Philadelphia,PA,39.87195278,-75.24114083
PHX,1999,1,11.3846153846,13,Phoenix Sky Harbor International,Phoenix,AZ,33.43416667,-112.0080556
PIT,1999,1,14.3333333333,9,Pittsburgh International,Pittsburgh,PA,40.49146583,-80.23287083
PVD,1999,1,17.0,6,Theodore F Green State,Providence,RI,41.72399917,-71.42822111
RDU,1999,1,13.6666666667,3,Raleigh-Durham International,Raleigh,NC,35.87763889,-78.78747222
RIC,1999,1,31.0,2,Richmond International,Richmond,VA,37.50516667,-77.31966667
RNO,1999,1,11.6666666667,3,Reno/Tahoe International,Reno,NV,39.49857611,-119.7680647
ROC,1999,1,4.33333333333,3,Greater Rochester Int'l,Rochester,NY,43.11886611,-77.67238389
RSW,1999,1,35.5,2,Southwest Florida International,Ft. Myers,FL,26.53616667,-81.75516667
SAN,1999,1,5.25,8,San Diego International-Lindbergh ,San Diego,CA,32.73355611,-117.1896567
SAT,1999,1,-8.0,1,San Antonio International,San Antonio,TX,29.53369444,-98.46977778
SDF,1999,1,-3.0,1,Louisville International-Standiford ,Louisville,KY,38.17438889,-85.736
SEA,1999,1,5.7,10,Seattle-Tacoma Intl,Seattle,WA,47.44898194,-122.3093131
SFO,1999,1,11.2666666667,15,San Francisco International,San Francisco,CA,37.61900194,-122.3748433
SJC,1999,1,18.0,3,San Jose International,San Jose,CA,37.36186194,-121.9290089
SLC,1999,1,-1.77777777778,9,Salt Lake City Intl,Salt Lake City,UT,40.78838778,-111.9777731
SMF,1999,1,4.0,2,Sacramento International,Sacramento,CA,38.69542167,-121.5907669
SNA,1999,1,14.75,4,John Wayne /Orange Co,Santa Ana,CA,33.67565861,-117.8682225
SRQ,1999,1,-2.0,1,Sarasota Bradenton International,Sarasota,FL,27.39533333,-82.55411111
STL,1999,1,18.2307692308,13,Lambert-St Louis International,St Louis,MO,38.74768694,-90.35998972
TPA,1999,1,24.75,4,Tampa International ,Tampa,FL,27.97547222,-82.53325
TUS,1999,1,43.0,1,Tucson International,Tucson,AZ,32.11608333,-110.9410278
TYS,1999,1,16.0,1,McGhee-Tyson,Knoxville,TN,35.81248722,-83.99285583
ABQ,2000,1,-4.0,1,Albuquerque International,Albuquerque,NM,35.04022222,-106.6091944
ATL,2000,1,-0.416666666667,24,William B Hartsfield-Atlanta Intl,Atlanta,GA,33.64044444,-84.42694444
AUS,2000,1,2.2,5,Austin-Bergstrom International,Austin,TX,30.19453278,-97.66987194
BDL,2000,1,18.5,2,Bradley International,Windsor Locks,CT,41.93887417,-72.68322833
BHM,2000,1,8.5,2,Birmingham International,Birmingham,AL,33.56294306,-86.75354972
BNA,2000,1,17.9,10,Nashville International,Nashville,TN,36.12447667,-86.67818222
BOI,2000,1,-10.0,1,Boise Air Terminal,Boise,ID,43.56444444,-116.2227778
BOS,2000,1,26.125,8,Gen Edw L Logan Intl,Boston,MA,42.3643475,-71.00517917
BUF,2000,1,7.0,2,Buffalo Niagara Intl,Buffalo,NY,42.94052472,-78.73216667
BUR,2000,1,28.0,1,Burbank-Glendale-Pasadena,Burbank,CA,34.20061917,-118.3584969
BWI,2000,1,5.4,5,Baltimore-Washington International,Baltimore,MD,39.17540167,-76.66819833
CAE,2000,1,-6.0,2,Columbia Metropolitan,Columbia,SC,33.93884,-81.11953944
CHS,2000,1,15.0,1,Charleston AFB/International,Charleston,SC,32.89864639,-80.04050583
CLE,2000,1,3.75,4,Cleveland-Hopkins Intl,Cleveland,OH,41.41089417,-81.84939667
CLT,2000,1,0.153846153846,13,Charlotte/Douglas International,Charlotte,NC,35.21401111,-80.94312583
CMH,2000,1,-12.0,1,Port Columbus Intl,Columbus,OH,39.99798528,-82.89188278
COS,2000,1,29.0,1,City of Colorado Springs Muni,Colorado Springs,CO,38.80580556,-104.70025
CVG,2000,1,20.6666666667,6,Cincinnati Northern Kentucky Intl,Covington,KY,39.04614278,-84.6621725
DAB,2000,1,-7.0,1,Daytona Beach International,Daytona Beach,FL,29.17991667,-81.05805556
DAL,2000,1,15.2,5,Dallas Love ,Dallas,TX,32.84711389,-96.85177222
DCA,2000,1,26.25,4,Ronald Reagan Washington National,Arlington,VA,38.85208333,-77.03772222
DEN,2000,1,-2.7,10,Denver Intl,Denver,CO,39.85840806,-104.6670019
DFW,2000,1,22.8181818182,22,Dallas-Fort Worth International,Dallas-Fort Worth,TX,32.89595056,-97.0372
DTW,2000,1,1.8,10,Detroit Metropolitan-Wayne County,Detroit,MI,42.21205889,-83.34883583
EGE,2000,1,-18.0,1,Eagle County Regional,Eagle,CO,39.64256778,-106.9176953
EWR,2000,1,1.33333333333,9,Newark Intl,Newark,NJ,40.69249722,-74.16866056
FLL,2000,1,78.0,1,Fort Lauderdale-Hollywood Int'l,Ft. Lauderdale,FL,26.07258333,-80.15275
FSD,2000,1,17.0,1,Joe Foss ,Sioux Falls,SD,43.58135111,-96.74170028
GEG,2000,1,10.0,1,Spokane Intl,Spokane,WA,47.61985556,-117.5338425
GRR,2000,1,-12.0,1,Kent County International,Grand Rapids,MI,42.88081972,-85.52276778
GSO,2000,1,9.0,1,Piedmont Triad International,Greensboro,NC,36.09774694,-79.9372975
GTF,2000,1,-10.0,1,Great Falls Intl,Great Falls,MT,47.48200194,-111.3706853
GUC,2000,1,47.0,1,Gunnison County,Gunnison,CO,38.53396333,-106.9331817
HDN,2000,1,-14.0,1,Yampa Valley,Hayden,CO,40.48118028,-107.2176597
HOU,2000,1,5.5,4,William P Hobby,Houston,TX,29.64541861,-95.27888889
IAD,2000,1,-6.8,5,Washington Dulles International,Chantilly,VA,38.94453194,-77.45580972
IAH,2000,1,-7.5,8,George Bush Intercontinental,Houston,TX,29.98047222,-95.33972222
IND,2000,1,1.66666666667,3,Indianapolis International,Indianapolis,IN,39.71732917,-86.29438417
ISP,2000,1,5.0,1,Long Island - MacArthur,Islip,NY,40.7952425,-73.10021194
JAN,2000,1,8.5,2,Jackson International,Jackson,MS,32.31116667,-90.07588889
JAX,2000,1,4.0,3,Jacksonville International,Jacksonville,FL,30.49405556,-81.68786111
JFK,2000,1,-7.11111111111,9,John F Kennedy Intl,New York,NY,40.63975111,-73.77892556
LAS,2000,1,6.2,5,McCarran International,Las Vegas,NV,36.08036111,-115.1523333
LAX,2000,1,21.1111111111,18,Los Angeles International,Los Angeles,CA,33.94253611,-118.4080744
LEX,2000,1,5.0,1,Blue Grass ,Lexington,KY,38.03697222,-84.60538889
LGA,2000,1,7.44444444444,9,LaGuardia,New York,NY,40.77724306,-73.87260917
LIT,2000,1,2.0,4,Adams ,Little Rock,AR,34.72939611,-92.22424556
MCI,2000,1,4.75,4,Kansas City International,Kansas City,MO,39.29760528,-94.71390556
MCO,2000,1,4.57142857143,7,Orlando International,Orlando,FL,28.42888889,-81.31602778
MDW,2000,1,10.3333333333,6,Chicago Midway,Chicago,IL,41.7859825,-87.75242444
MEM,2000,1,-11.6666666667,6,Memphis International,Memphis,TN,35.04241667,-89.97666667
MIA,2000,1,31.6666666667,6,Miami International,Miami,FL,25.79325,-80.29055556
MKE,2000,1,9.0,2,General Mitchell International,Milwaukee,WI,42.94722222,-87.89658333
MSN,2000,1,4.0,1,Dane County Regional,Madison,WI,43.13985778,-89.33751361
MSP,2000,1,-2.46153846154,13,Minneapolis-St Paul Intl,Minneapolis,MN,44.88054694,-93.2169225
MSY,2000,1,-4.25,4,New Orleans International ,New Orleans,LA,29.99338889,-90.25802778
MYR,2000,1,-10.0,1,Myrtle Beach International,Myrtle Beach,SC,33.67975,-78.92833333
OAK,2000,1,29.0,11,Metropolitan Oakland International,Oakland,CA,37.72129083,-122.2207167
OKC,2000,1,-6.0,1,Will Rogers World,Oklahoma City,OK,35.39308833,-97.60073389
OMA,2000,1,0.5,4,Eppley Airfield,Omaha,NE,41.30251861,-95.89417306
ONT,2000,1,38.6666666667,6,Ontario International,Ontario,CA,34.056,-117.6011944
ORD,2000,1,28.2380952381,21,Chicago O'Hare International,Chicago,IL,41.979595,-87.90446417
ORF,2000,1,-7.0,3,Norfolk International,Norfolk,VA,36.89461111,-76.20122222
PBI,2000,1,3.83333333333,6,Palm Beach International,West Palm Beach,FL,26.68316194,-80.09559417
PDX,2000,1,-0.333333333333,6,Portland Intl,Portland,OR,45.58872222,-122.5975
PHL,2000,1,109.75,4,Philadelphia Intl,Philadelphia,PA,39.87195278,-75.24114083
PHX,2000,1,10.0714285714,14,Phoenix Sky Harbor International,Phoenix,AZ,33.43416667,-112.0080556
PIT,2000,1,7.42857142857,7,Pittsburgh International,Pittsburgh,PA,40.49146583,-80.23287083
PSP,2000,1,13.0,1,Palm Springs International,Palm Springs,CA,33.82921556,-116.5062531
PVD,2000,1,-2.5,4,Theodore F Green State,Providence,RI,41.72399917,-71.42822111
RDU,2000,1,4.75,4,Raleigh-Durham International,Raleigh,NC,35.87763889,-78.78747222
RIC,2000,1,30.5,2,Richmond International,Richmond,VA,37.50516667,-77.31966667
RNO,2000,1,-3.0,2,Reno/Tahoe International,Reno,NV,39.49857611,-119.7680647
ROC,2000,1,42.0,1,Greater Rochester Int'l,Rochester,NY,43.11886611,-77.67238389
RSW,2000,1,-3.33333333333,3,Southwest Florida International,Ft. Myers,FL,26.53616667,-81.75516667
SAN,2000,1,19.5,4,San Diego International-Lindbergh ,San Diego,CA,32.73355611,-117.1896567
SAT,2000,1,5.57142857143,7,San Antonio International,San Antonio,TX,29.53369444,-98.46977778
SAV,2000,1,11.0,3,Savannah International,Savannah,GA,32.12758333,-81.20213889
SDF,2000,1,-8.33333333333,3,Louisville International-Standiford ,Louisville,KY,38.17438889,-85.736
SEA,2000,1,17.1,10,Seattle-Tacoma Intl,Seattle,WA,47.44898194,-122.3093131
SFO,2000,1,35.7,10,San Francisco International,San Francisco,CA,37.61900194,-122.3748433
SHV,2000,1,-4.0,1,Shreveport Regional,Shreveport,LA,32.4466275,-93.82559833
SJC,2000,1,14.5,6,San Jose International,San Jose,CA,37.36186194,-121.9290089
SLC,2000,1,26.0,4,Salt Lake City Intl,Salt Lake City,UT,40.78838778,-111.9777731
SMF,2000,1,10.5,4,Sacramento International,Sacramento,CA,38.69542167,-121.5907669
SNA,2000,1,-5.33333333333,3,John Wayne /Orange Co,Santa Ana,CA,33.67565861,-117.8682225
SRQ,2000,1,4.0,1,Sarasota Bradenton International,Sarasota,FL,27.39533333,-82.55411111
STL,2000,1,18.0,12,Lambert-St Louis International,St Louis,MO,38.74768694,-90.35998972
SYR,2000,1,-0.5,2,Syracuse-Hancock Intl,Syracuse,NY,43.11118694,-76.10631056
TPA,2000,1,20.0,5,Tampa International ,Tampa,FL,27.97547222,-82.53325
TUL,2000,1,-3.0,1,Tulsa International,Tulsa,OK,36.19837222,-95.88824167
TUS,2000,1,-16.0,1,Tucson International,Tucson,AZ,32.11608333,-110.9410278
TVC,2000,1,5.0,1,Cherry Capital,Traverse City,MI,44.74144472,-85.582235
ABE,2001,1,-9.0,1,Lehigh Valley International,Allentown,PA,40.65236278,-75.44040167
ABI,2001,1,36.0,1,Abilene Regional,Abilene,TX,32.41132,-99.68189722
ABQ,2001,1,-2.66666666667,3,Albuquerque International,Albuquerque,NM,35.04022222,-106.6091944
